[{"id":"0x47a84fc84313ef67:0x6c3145fbe7e447f","name":"Hasir Kreuzberg","area":"Kreuzberg","venue_type":"restaurant","category":"Türkisches Restaurant","lat":52.5008745,"lng":13.4192135,"star_rating":4.4,"total_reviews":1155,"removed_min":250,"removed_max":null,"removal_rate":null,"status":"hit","last_checked":"2026-04-26T23:44:35.401731+00:00","mss_si_n":3},{"id":"0x47a851e90443d657:0x5a3de5e549fd2d99","name":"AMRIT - Indisches Restaurant Berlin Mitte","area":"Mitte","venue_type":"restaurant","category":"Indisches Restaurant","lat":52.5259176,"lng":13.3898183,"star_rating":4.7,"total_reviews":6550,"removed_min":250,"removed_max":null,"removal_rate":null,"status":"hit","last_checked":"2026-04-27T00:25:37.481947+00:00","mss_si_n":2},{"id":"0x47a851e05be13a53:0x9e0918d12ba9fd35","name":"Das Lemke - Biergarten, Brauerei, deutsche Küche","area":"Mitte","venue_type":"restaurant","category":"Deutsches Restaurant","lat":52.5232756,"lng":13.404724,"star_rating":4.4,"total_reviews":4386,"removed_min":250,"removed_max":null,"removal_rate":null,"status":"hit","last_checked":"2026-04-27T00:31:49.065596+00:00","mss_si_n":2},{"id":"0x47a851e878ceb4cb:0xed831c1f5bc1d63b","name":"Grand Bar Cafe Restaurant Bar","area":"Mitte","venue_type":"restaurant","category":"Restaurant","lat":52.5250481,"lng":13.3931837,"star_rating":4.7,"total_reviews":4274,"removed_min":250,"removed_max":null,"removal_rate":null,"status":"hit","last_checked":"2026-04-27T00:38:17.642028+00:00","mss_si_n":2},{"id":"0x47a851e024d0cc95:0x2a09dc3ae024565d","name":"The Pub","area":"Mitte","venue_type":"bar","category":"Kneipe","lat":52.523,"lng":13.4073341,"star_rating":4.6,"total_reviews":2518,"removed_min":250,"removed_max":null,"removal_rate":null,"status":"hit","last_checked":"2026-04-27T00:41:35.325737+00:00","mss_si_n":2},{"id":"0x47a8504f27553513:0x802d62e479b2a619","name":"AMRIT - Indisches Restaurant Berlin Schöneberg","area":"Schöneberg","venue_type":"restaurant","category":"Indisches Restaurant","lat":52.4973106,"lng":13.3547693,"star_rating":4.7,"total_reviews":4195,"removed_min":250,"removed_max":null,"removal_rate":null,"status":"hit","last_checked":"2026-04-27T03:01:49.142453+00:00","mss_si_n":2},{"id":"0x47a85051d3647905:0x6536f39d5067db62","name":"Romeo und Romeo","area":"Schöneberg","venue_type":"bar","category":"Gay Bar","lat":52.4983407,"lng":13.3493954,"star_rating":4.7,"total_reviews":1693,"removed_min":250,"removed_max":null,"removal_rate":null,"status":"hit","last_checked":"2026-04-27T03:25:27.634954+00:00","mss_si_n":2},{"id":"0x47a84ffc59111601:0xa86845b5ca706e9e","name":"Risa Chicken","area":"Tempelhof","venue_type":"restaurant","category":"Hähnchenrestaurant","lat":52.46635,"lng":13.3852099,"star_rating":4.7,"total_reviews":3272,"removed_min":250,"removed_max":null,"removal_rate":null,"status":"hit","last_checked":"2026-04-27T03:42:00.796761+00:00","mss_si_n":2},{"id":"0x47a853f855c74163:0x7f958bd1dc97b60","name":"La Fiamma Frühstückshaus Wedding","area":"Gesundbrunnen","venue_type":"cafe","category":"Frühstückslokal","lat":52.5555513,"lng":13.3836935,"star_rating":4.7,"total_reviews":1236,"removed_min":250,"removed_max":null,"removal_rate":null,"status":"hit","last_checked":"2026-04-27T04:46:02.392472+00:00","mss_si_n":4},{"id":"0x47a84dc1a8308acf:0x311869111eac8387","name":"Ormos by Milchhäuschen","area":"Weißensee","venue_type":"restaurant","category":"Griechisches Restaurant","lat":52.5545624,"lng":13.4610294,"star_rating":4.7,"total_reviews":1387,"removed_min":250,"removed_max":null,"removal_rate":null,"status":"hit","last_checked":"2026-04-27T04:48:21.208359+00:00","mss_si_n":2},{"id":"0x47a851e21efff697:0x38cb9574d7015306","name":"Monsieur Vuong","area":"Mitte","venue_type":"restaurant","category":"Vietnamesisches Restaurant","lat":52.5266538,"lng":13.4079523,"star_rating":4.6,"total_reviews":6790,"removed_min":250,"removed_max":null,"removal_rate":0.036818851251840944,"status":"hit","last_checked":"2026-04-28T14:13:22.214516+00:00","mss_si_n":2},{"id":"0x47a851e215abf731:0xb094e46585ed82e0","name":"YamYam Berlin","area":"Mitte","venue_type":"restaurant","category":"Koreanisches Restaurant","lat":52.5275836,"lng":13.4082387,"star_rating":4.6,"total_reviews":3088,"removed_min":250,"removed_max":null,"removal_rate":0.08095854922279792,"status":"hit","last_checked":"2026-04-28T14:22:31.464644+00:00","mss_si_n":2},{"id":"0x47a851c23309e2f3:0x2d200b3d2b87b7db","name":"ANAND – Indisches Spezialitätenrestaurant","area":"Mitte","venue_type":"restaurant","category":"Indisches Restaurant","lat":52.5211965,"lng":13.3849594,"star_rating":4.7,"total_reviews":2067,"removed_min":250,"removed_max":null,"removal_rate":0.12094823415578132,"status":"hit","last_checked":"2026-04-28T14:42:16.167535+00:00","mss_si_n":1},{"id":"0x47a851c926adb9af:0x486e12db20958559","name":"AMRIT - Indisches Restaurant Berlin Potsdamer Platz","area":"Mitte","venue_type":"restaurant","category":"Indisches Restaurant","lat":52.5105,"lng":13.37717,"star_rating":4.7,"total_reviews":7717,"removed_min":250,"removed_max":null,"removal_rate":0.032396008811714394,"status":"hit","last_checked":"2026-04-28T14:44:28.427076+00:00","mss_si_n":2},{"id":"0x47a84e21ba30b557:0xded4e042c2586d18","name":"Cancún","area":"Mitte","venue_type":"restaurant","category":"Lateinamerikanisches Restaurant","lat":52.5191386,"lng":13.4095071,"star_rating":4.4,"total_reviews":4313,"removed_min":250,"removed_max":null,"removal_rate":0.05796429399489914,"status":"hit","last_checked":"2026-04-28T15:30:47.504457+00:00","mss_si_n":2},{"id":"0x47a851cedbb1be05:0xe62d92f38c638fd1","name":"Beef Grill Club by Hasir","area":"Mitte","venue_type":"restaurant","category":"Steakhouse","lat":52.5102283,"lng":13.3794314,"star_rating":4.6,"total_reviews":1380,"removed_min":250,"removed_max":null,"removal_rate":0.18115942028985507,"status":"hit","last_checked":"2026-04-28T15:53:14.733480+00:00","mss_si_n":2},{"id":"0x47a85100629abc31:0xe6d4dfd39e09ccc0","name":"Jamie Oliver Kitchen Berlin","area":"Mitte","venue_type":"restaurant","category":"Restaurant","lat":52.5225336,"lng":13.3876374,"star_rating":4.7,"total_reviews":718,"removed_min":250,"removed_max":null,"removal_rate":0.34818941504178275,"status":"hit","last_checked":"2026-04-28T16:02:32.914689+00:00","mss_si_n":1},{"id":"0x47a851c236456ddb:0x6c3e2d96ee2a0a7e","name":"Ständige Vertretung \"StäV\"","area":"Mitte","venue_type":"restaurant","category":"Deutsches Restaurant","lat":52.5212721,"lng":13.3855171,"star_rating":4.6,"total_reviews":6769,"removed_min":250,"removed_max":null,"removal_rate":0.03693307726399764,"status":"hit","last_checked":"2026-04-28T16:04:11.744815+00:00","mss_si_n":1},{"id":"0x47a851c5dc4701eb:0x8bdd1822e5f1e480","name":"Viale dei Tigli","area":"Mitte","venue_type":"restaurant","category":"Italienisches Restaurant","lat":52.5148798,"lng":13.381143,"star_rating":4.5,"total_reviews":858,"removed_min":250,"removed_max":null,"removal_rate":0.2913752913752914,"status":"hit","last_checked":"2026-04-28T17:17:48.142519+00:00","mss_si_n":2},{"id":"0x47a84e24b0dd7bcb:0x3a0231a7e90f237","name":"Ming Dynastie Jannowitzbrücke Berlin","area":"Mitte","venue_type":"restaurant","category":"Chinesisches Restaurant","lat":52.5135552,"lng":13.4183471,"star_rating":4.7,"total_reviews":3565,"removed_min":250,"removed_max":null,"removal_rate":0.07012622720897616,"status":"hit","last_checked":"2026-04-28T17:47:46.307704+00:00","mss_si_n":2},{"id":"0x47a84e3508b75a79:0x315c94592f51ae6d","name":"AMRIT - Indisches Restaurant Berlin Kreuzberg","area":"Kreuzberg","venue_type":"restaurant","category":"Indisches Restaurant","lat":52.499641,"lng":13.4249485,"star_rating":4.7,"total_reviews":3894,"removed_min":250,"removed_max":null,"removal_rate":0.06420133538777606,"status":"hit","last_checked":"2026-04-28T18:08:26.666711+00:00","mss_si_n":2},{"id":"0x47a8504ee69b5331:0x3ffabc34cec8cadd","name":"Hasir Nollendorfplatz Turkisch Restaurant","area":"Schöneberg","venue_type":"restaurant","category":"Türkisches Restaurant","lat":52.4977417,"lng":13.3538418,"star_rating":4.5,"total_reviews":1023,"removed_min":250,"removed_max":null,"removal_rate":0.24437927663734116,"status":"hit","last_checked":"2026-04-28T18:13:59.731512+00:00","mss_si_n":2},{"id":"0x47a851fcde48f107:0xd0ad9d577e16e085","name":"Standard Serious Pizza","area":"Prenzlauer Berg","venue_type":"restaurant","category":"Pizzeria","lat":52.532864,"lng":13.4086254,"star_rating":4.6,"total_reviews":3058,"removed_min":250,"removed_max":null,"removal_rate":0.08175277959450622,"status":"hit","last_checked":"2026-04-28T18:57:35.857456+00:00","mss_si_n":2},{"id":"0x47a851de3081eccf:0xe58c82b3e3448be4","name":"Alois Moser","area":"Mitte","venue_type":"restaurant","category":"Restaurant","lat":52.5206875,"lng":13.4013194,"star_rating":4.4,"total_reviews":875,"removed_min":250,"removed_max":null,"removal_rate":0.2857142857142857,"status":"hit","last_checked":"2026-04-28T19:04:21.969011+00:00","mss_si_n":2},{"id":"0x47a84e1fc0000019:0xb8c7f5ee94555e2e","name":"Vincenzo - Italian Restaurant & Bar am Alexanderplatz Berlin","area":"Mitte","venue_type":"restaurant","category":"Italienisches Restaurant","lat":52.5202342,"lng":13.411744,"star_rating":4.4,"total_reviews":2404,"removed_min":250,"removed_max":null,"removal_rate":0.10399334442595674,"status":"hit","last_checked":"2026-04-28T19:26:36.161135+00:00","mss_si_n":2},{"id":"0x47a84e21d89b7aa7:0xc6629316d9daa009","name":"Carambar","area":"Mitte","venue_type":"restaurant","category":"Restaurant","lat":52.5203875,"lng":13.41214,"star_rating":4.6,"total_reviews":7981,"removed_min":250,"removed_max":null,"removal_rate":0.031324395439168026,"status":"hit","last_checked":"2026-04-28T19:34:15.840598+00:00","mss_si_n":2},{"id":"0x47a84f5f27049467:0xc1d63531ef93c8d1","name":"Mio Berlin","area":"Mitte","venue_type":"restaurant","category":"Restaurant","lat":52.5208357,"lng":13.4094084,"star_rating":4.3,"total_reviews":4356,"removed_min":250,"removed_max":null,"removal_rate":0.0573921028466483,"status":"hit","last_checked":"2026-04-28T19:34:52.404976+00:00","mss_si_n":2},{"id":"0x47a84f50dc0e0179:0xa5bfca8fbba50fbb","name":"Hasir Restaurant","area":"Kreuzberg","venue_type":"restaurant","category":"Turkish restaurant","lat":52.5011855,"lng":13.4193742,"star_rating":4.5,"total_reviews":1861,"removed_min":250,"removed_max":null,"removal_rate":0.13433637829124126,"status":"hit","last_checked":"2026-04-28T20:23:57.879875+00:00","mss_si_n":3},{"id":"0x47a851ff74c03a25:0xba80eb28cd879015","name":"RISA Chicken","area":"Prenzlauer Berg","venue_type":"restaurant","category":"Hähnchenrestaurant","lat":52.5408155,"lng":13.4125702,"star_rating":4.6,"total_reviews":3374,"removed_min":250,"removed_max":null,"removal_rate":0.07409602845287493,"status":"hit","last_checked":"2026-04-28T21:39:53.735120+00:00","mss_si_n":2},{"id":"0x47a84e71c6877077:0x994a79e93f21d254","name":"Ristorante Italiano","area":"Prenzlauer Berg","venue_type":"restaurant","category":"Italienisches Restaurant","lat":52.5278699,"lng":13.4515941,"star_rating":4.5,"total_reviews":1103,"removed_min":250,"removed_max":null,"removal_rate":0.22665457842248413,"status":"hit","last_checked":"2026-04-28T22:06:37.566650+00:00","mss_si_n":2},{"id":"0x47a84e51c9974471:0x9e257fe3596d37e5","name":"Pirates Berlin","area":"Friedrichshain","venue_type":"restaurant","category":"Restaurant","lat":52.5027187,"lng":13.4455124,"star_rating":4.4,"total_reviews":7653,"removed_min":250,"removed_max":null,"removal_rate":0.03266692800209069,"status":"hit","last_checked":"2026-04-28T22:32:57.105342+00:00","mss_si_n":2},{"id":"0x47a84f8a464ac8d7:0x9d7561832964e201","name":"Al Faisal Grills und Restaurant","area":"Neukölln","venue_type":"restaurant","category":"Syrisches Restaurant","lat":52.4874099,"lng":13.4271533,"star_rating":4.9,"total_reviews":12396,"removed_min":250,"removed_max":null,"removal_rate":0.02016779606324621,"status":"hit","last_checked":"2026-04-29T02:02:44.089378+00:00","mss_si_n":2},{"id":"0x47a85039e2a4afb3:0x6e53d89c0aba27bd","name":"Hisar fresh food","area":"Schöneberg","venue_type":"restaurant","category":"Kebabimbiss","lat":52.4929428,"lng":13.3687721,"star_rating":4.6,"total_reviews":1917,"removed_min":250,"removed_max":null,"removal_rate":0.13041210224308816,"status":"hit","last_checked":"2026-04-29T02:28:46.096116+00:00","mss_si_n":2},{"id":"0x47a850494b72abc7:0x2fec4d1550c52696","name":"Saigon Com Nieu - THE ORIGINAL","area":"Schöneberg","venue_type":"restaurant","category":"Vietnamesisches Restaurant","lat":52.4985449,"lng":13.3572662,"star_rating":4.7,"total_reviews":1511,"removed_min":250,"removed_max":null,"removal_rate":0.1654533421575116,"status":"hit","last_checked":"2026-04-29T02:46:28.657489+00:00","mss_si_n":2},{"id":"0x47a84e339c53ca99:0x8485d0e5e315cebb","name":"Hasir Burger","area":"Kreuzberg","venue_type":"restaurant","category":"Burgerrestaurant","lat":52.5012616,"lng":13.4190582,"star_rating":4.3,"total_reviews":3044,"removed_min":250,"removed_max":null,"removal_rate":0.0821287779237845,"status":"hit","last_checked":"2026-04-29T03:09:42.117103+00:00","mss_si_n":3},{"id":"0x47a84fb752d876db:0xa29d9224c6b4eefb","name":"Risa Chicken","area":"Neukölln","venue_type":"restaurant","category":"Hähnchenrestaurant","lat":52.4864578,"lng":13.4287215,"star_rating":4.7,"total_reviews":4191,"removed_min":250,"removed_max":null,"removal_rate":0.05965163445478406,"status":"hit","last_checked":"2026-04-29T04:21:59.460163+00:00","mss_si_n":2},{"id":"0x47a851b111fbec01:0x40714dd2fb0549da","name":"Mido Restaurant","area":"Charlottenburg","venue_type":"restaurant","category":"Japanisches Restaurant","lat":52.5011694,"lng":13.3078455,"star_rating":4.7,"total_reviews":2207,"removed_min":250,"removed_max":null,"removal_rate":0.11327594019030358,"status":"hit","last_checked":"2026-04-29T08:31:11.084951+00:00","mss_si_n":2},{"id":"0x47a850557cb7a42b:0x6a3e8aae92af3c3e","name":"EINSTEIN KAFFEE Bikini","area":"Charlottenburg","venue_type":"cafe","category":"Café","lat":52.5053697,"lng":13.3374862,"star_rating":4.3,"total_reviews":1660,"removed_min":250,"removed_max":null,"removal_rate":0.15060240963855423,"status":"hit","last_checked":"2026-04-30T06:04:59.158636+00:00","mss_si_n":2},{"id":"0x47a850fe4a74e057:0x817234759c3928fa","name":"Risa Chicken","area":"Charlottenburg","venue_type":"restaurant","category":"Hähnchenrestaurant","lat":52.5064622,"lng":13.3336138,"star_rating":4.6,"total_reviews":4781,"removed_min":250,"removed_max":null,"removal_rate":0.052290315833507635,"status":"hit","last_checked":"2026-04-29T14:28:14.421921+00:00","mss_si_n":2},{"id":"0x47a850e15badeefb:0xc618eb6fb29d019b","name":"King Karaoke Berlin","area":"Charlottenburg","venue_type":"bar","category":"Bar","lat":52.5055437,"lng":13.3135713,"star_rating":4.7,"total_reviews":1791,"removed_min":250,"removed_max":null,"removal_rate":0.13958682300390843,"status":"hit","last_checked":"2026-04-29T23:06:43.009887+00:00","mss_si_n":2},{"id":"0x47a85444eeffe48b:0x1a789fc90dbfc2b3","name":"Tegeler Seeterrassen","area":"Tegel","venue_type":"restaurant","category":null,"lat":52.5884509,"lng":13.2745626,"star_rating":4.6,"total_reviews":1311,"removed_min":250,"removed_max":null,"removal_rate":0.19069412662090007,"status":"hit","last_checked":"2026-04-29T19:04:16.474374+00:00","mss_si_n":null},{"id":"0x47a84f0d6da07c6f:0xe9c76f7638dbeb43","name":"Estrel Berlin","area":"Neukölln","venue_type":"restaurant","category":null,"lat":52.473421,"lng":13.458957,"star_rating":4.5,"total_reviews":15868,"removed_min":250,"removed_max":null,"removal_rate":0.01575497857322914,"status":"hit","last_checked":"2026-04-29T19:22:23.771330+00:00","mss_si_n":null},{"id":"0x47a851c4be9016e7:0x4174f7a2cb96cf37","name":"Nante-Eck | Restaurant Berlin Mitte","area":"Mitte","venue_type":"restaurant","category":"Deutsches Restaurant","lat":52.5166722,"lng":13.388301,"star_rating":4.6,"total_reviews":5838,"removed_min":201,"removed_max":250,"removal_rate":null,"status":"hit","last_checked":"2026-04-27T00:20:53.515868+00:00","mss_si_n":2},{"id":"0x47a84fc2d4628001:0x288d773b76573fb6","name":"Spaccanapoli Nr. 12","area":"Friedrichshain","venue_type":"restaurant","category":"Italienisches Restaurant","lat":52.5082954,"lng":13.4635381,"star_rating":4.8,"total_reviews":1260,"removed_min":201,"removed_max":250,"removal_rate":null,"status":"hit","last_checked":"2026-04-27T01:51:49.682840+00:00","mss_si_n":2},{"id":"0x47a85054fb083f5b:0x338a3eb5667dc809","name":"Ristorante Evin","area":"Schöneberg","venue_type":"restaurant","category":"Italienisches Restaurant","lat":52.5046626,"lng":13.3419725,"star_rating":4.8,"total_reviews":1462,"removed_min":201,"removed_max":250,"removal_rate":null,"status":"hit","last_checked":"2026-04-27T03:04:29.677895+00:00","mss_si_n":2},{"id":"0x47a851e5a2dc3f1d:0xe0aae28e8ccabc41","name":"Muschiobermaier Bar","area":"Mitte","venue_type":"bar","category":"Bar","lat":52.5295835,"lng":13.3976548,"star_rating":4.5,"total_reviews":704,"removed_min":201,"removed_max":250,"removal_rate":0.35511363636363635,"status":"hit","last_checked":"2026-04-29T19:26:53.551357+00:00","mss_si_n":1},{"id":"0x47a851e37f24dee9:0xc9547a053ef7d3f2","name":"Rosenthaler Grill und Schlemmerbuffet","area":"Mitte","venue_type":"restaurant","category":"Kebabimbiss","lat":52.5298715,"lng":13.40073,"star_rating":4.6,"total_reviews":2347,"removed_min":201,"removed_max":250,"removal_rate":0.10651896037494674,"status":"hit","last_checked":"2026-04-28T13:23:15.515910+00:00","mss_si_n":1},{"id":"0x47a8510c8aba9cbf:0xb1c9547743024de6","name":"Falafel Humbaba","area":"Moabit","venue_type":"restaurant","category":"Falafel-Restaurant","lat":52.5263099,"lng":13.3382697,"star_rating":4.8,"total_reviews":1931,"removed_min":201,"removed_max":250,"removal_rate":0.1294665976178146,"status":"hit","last_checked":"2026-04-28T13:47:07.622958+00:00","mss_si_n":3},{"id":"0x47a851d9c004b0b7:0x742c2855834010bb","name":"Good Time Restaurant","area":"Mitte","venue_type":"restaurant","category":"Thailändisches Restaurant","lat":52.5126478,"lng":13.3970312,"star_rating":4.5,"total_reviews":2278,"removed_min":201,"removed_max":250,"removal_rate":0.10974539069359086,"status":"hit","last_checked":"2026-04-28T14:29:30.701942+00:00","mss_si_n":2},{"id":"0x47a851e7523d46fd:0x89af8149ad530879","name":"Restaurant Aposto","area":"Mitte","venue_type":"restaurant","category":"Italienisches Restaurant","lat":52.5227072,"lng":13.3998395,"star_rating":4.6,"total_reviews":1221,"removed_min":201,"removed_max":250,"removal_rate":0.20475020475020475,"status":"hit","last_checked":"2026-04-28T15:22:20.344822+00:00","mss_si_n":2},{"id":"0x47a8510028a58d2d:0x96daf940cd8ffec0","name":"Nhas City Chicken","area":"Mitte","venue_type":"restaurant","category":"Hähnchenrestaurant","lat":52.5298407,"lng":13.4005963,"star_rating":4.7,"total_reviews":1710,"removed_min":201,"removed_max":250,"removal_rate":0.14619883040935672,"status":"hit","last_checked":"2026-04-28T18:54:05.588849+00:00","mss_si_n":1},{"id":"0x47a84f022c887a1f:0x65ec743942a3cb8f","name":"Alsancak Simit Sarayi","area":"Kreuzberg","venue_type":"restaurant","category":"Frühstückslokal","lat":52.4958936,"lng":13.3956719,"star_rating":4.7,"total_reviews":1919,"removed_min":201,"removed_max":250,"removal_rate":0.13027618551328818,"status":"hit","last_checked":"2026-04-28T19:20:32.806711+00:00","mss_si_n":2},{"id":"0x47a85056d59eaf25:0x399a50b61d4575a2","name":"Feinberg’s","area":"Schöneberg","venue_type":"restaurant","category":"Israelisches Restaurant","lat":52.4991013,"lng":13.3418082,"star_rating":4.4,"total_reviews":2800,"removed_min":201,"removed_max":250,"removal_rate":0.08928571428571429,"status":"hit","last_checked":"2026-04-28T19:50:14.447827+00:00","mss_si_n":2},{"id":"0x47a84e337ca625ed:0x23e12a79013edc92","name":"Lezzet Grill","area":"Kreuzberg","venue_type":"restaurant","category":"Restaurant","lat":52.5001039,"lng":13.418563,"star_rating":3.9,"total_reviews":149,"removed_min":201,"removed_max":250,"removal_rate":1.6778523489932886,"status":"hit","last_checked":"2026-04-28T20:03:16.465026+00:00","mss_si_n":3},{"id":"0x47a853ede14bab01:0xebbcf989ef994dbf","name":"Mido Fuji Prenzlauer Berg","area":"Prenzlauer Berg","venue_type":"restaurant","category":"Sushi restaurant","lat":52.5443632,"lng":13.4163182,"star_rating":4.7,"total_reviews":1937,"removed_min":201,"removed_max":250,"removal_rate":0.12906556530717606,"status":"hit","last_checked":"2026-04-28T20:56:27.475094+00:00","mss_si_n":2},{"id":"0x47a85225c88913df:0x915825eaf7a8aa88","name":"Imren Grill","area":"Gesundbrunnen","venue_type":"restaurant","category":"Türkisches Restaurant","lat":52.5527259,"lng":13.3791562,"star_rating":4.7,"total_reviews":1235,"removed_min":201,"removed_max":250,"removal_rate":0.20242914979757085,"status":"hit","last_checked":"2026-04-28T22:03:55.697103+00:00","mss_si_n":4},{"id":"0x47a85125754291f3:0x741282d864e0d0ac","name":"Luisenbräu","area":"Charlottenburg","venue_type":"restaurant","category":"Deutsches Restaurant","lat":52.5199784,"lng":13.2998062,"star_rating":4.5,"total_reviews":2599,"removed_min":201,"removed_max":250,"removal_rate":0.09619084263178146,"status":"hit","last_checked":"2026-04-29T22:02:05.824729+00:00","mss_si_n":2},{"id":"0x47a850debcefb2c1:0x9eccc566a2bc620","name":"Lotus","area":"Charlottenburg","venue_type":"restaurant","category":"Indisches Restaurant","lat":52.5069797,"lng":13.3008337,"star_rating":4.7,"total_reviews":1256,"removed_min":201,"removed_max":250,"removal_rate":0.19904458598726116,"status":"hit","last_checked":"2026-04-29T12:24:49.866844+00:00","mss_si_n":2},{"id":"0x47a851cd367d418b:0x335d9ae196d3fe8b","name":"Berlin Story Bunker","area":"Kreuzberg","venue_type":"other","category":"Museum","lat":52.5029008,"lng":13.3803901,"star_rating":4.7,"total_reviews":6865,"removed_min":151,"removed_max":200,"removal_rate":null,"status":"hit","last_checked":"2026-04-27T00:15:35.217720+00:00","mss_si_n":3},{"id":"0x47a851de53463a57:0x2d0c99bfca279864","name":"DDR Museum","area":"Mitte","venue_type":"other","category":"Museum","lat":52.5192243,"lng":13.402637,"star_rating":4.3,"total_reviews":27290,"removed_min":151,"removed_max":200,"removal_rate":null,"status":"hit","last_checked":"2026-04-27T01:01:22.926433+00:00","mss_si_n":2},{"id":"0x47a84e021e528e11:0x254f53256adf6e44","name":"Gugelhof","area":"Prenzlauer Berg","venue_type":"restaurant","category":"Restaurant","lat":52.5354501,"lng":13.4166599,"star_rating":4.7,"total_reviews":516,"removed_min":151,"removed_max":200,"removal_rate":null,"status":"hit","last_checked":"2026-04-27T01:21:10.652982+00:00","mss_si_n":1},{"id":"0x47a84e6910ed326f:0xb895aaad92e7f361","name":"Rembrandt-Burger Berlin","area":"Friedrichshain","venue_type":"restaurant","category":"Burgerrestaurant","lat":52.5200221,"lng":13.4478945,"star_rating":4.7,"total_reviews":3695,"removed_min":151,"removed_max":200,"removal_rate":null,"status":"hit","last_checked":"2026-04-27T01:56:02.380570+00:00","mss_si_n":2},{"id":"0x47a84e5ea68b6a3d:0x81c78818b36c3aa8","name":"Homemade","area":"Friedrichshain","venue_type":"cafe","category":"Frühstückslokal","lat":52.5108333,"lng":13.4563889,"star_rating":4.6,"total_reviews":763,"removed_min":151,"removed_max":200,"removal_rate":null,"status":"hit","last_checked":"2026-04-27T02:16:18.599633+00:00","mss_si_n":2},{"id":"0x47a8511828be2cb3:0x69916e7e02acb48e","name":"Magic John’s Pizza","area":"Mitte","venue_type":"restaurant","category":"Pizzeria","lat":52.5261429,"lng":13.3889664,"star_rating":4.8,"total_reviews":1780,"removed_min":151,"removed_max":200,"removal_rate":0.11235955056179775,"status":"hit","last_checked":"2026-04-28T13:22:17.233484+00:00","mss_si_n":2},{"id":"0x47a84e0269ed2ad3:0x8e52fc686ba5a082","name":"Marubi Chinesische Spezialitäten","area":"Prenzlauer Berg","venue_type":"restaurant","category":"Chinesisches Nudelrestaurant","lat":52.5292592,"lng":13.4094982,"star_rating":4.7,"total_reviews":1808,"removed_min":151,"removed_max":200,"removal_rate":0.11061946902654868,"status":"hit","last_checked":"2026-04-28T14:08:08.586328+00:00","mss_si_n":2},{"id":"0x47a84e4993a00e29:0x9b5ab1183e55109b","name":"Long March Canteen","area":"Kreuzberg","venue_type":"restaurant","category":"Chinesisches Restaurant","lat":52.5029596,"lng":13.4310297,"star_rating":4.6,"total_reviews":1408,"removed_min":151,"removed_max":200,"removal_rate":0.14204545454545456,"status":"hit","last_checked":"2026-04-28T14:22:16.144498+00:00","mss_si_n":2},{"id":"0x47a84e5f0607dfdf:0x1656d4bbfc061f39","name":"Funk You - Natural Food","area":"Mitte","venue_type":"cafe","category":"Café","lat":52.5263827,"lng":13.403329,"star_rating":4.6,"total_reviews":1134,"removed_min":151,"removed_max":200,"removal_rate":0.1763668430335097,"status":"hit","last_checked":"2026-04-28T15:39:28.530365+00:00","mss_si_n":2},{"id":"0x47a851dbe4bda6a1:0x5cbe9e766a0f4704","name":"Ristorante Marea","area":"Mitte","venue_type":"restaurant","category":"Italienisches Restaurant","lat":52.5090474,"lng":13.3793268,"star_rating":4.7,"total_reviews":1823,"removed_min":151,"removed_max":200,"removal_rate":0.10970927043335162,"status":"hit","last_checked":"2026-04-28T17:16:05.760708+00:00","mss_si_n":2},{"id":"0x47a851e2a73fd3d1:0x644fd56d6bfe2d","name":"Fleischerei","area":"Prenzlauer Berg","venue_type":"restaurant","category":"Restaurant","lat":52.5297856,"lng":13.4105204,"star_rating":4.7,"total_reviews":814,"removed_min":151,"removed_max":200,"removal_rate":0.2457002457002457,"status":"hit","last_checked":"2026-04-28T18:50:45.438965+00:00","mss_si_n":1},{"id":"0x47a84fbd00fd96a1:0x2b750456794169e3","name":"Azzam Restaurant","area":"Neukölln","venue_type":"restaurant","category":"Nahost-Restaurant","lat":52.4849569,"lng":13.4328568,"star_rating":4.8,"total_reviews":6472,"removed_min":151,"removed_max":200,"removal_rate":0.030902348578491966,"status":"hit","last_checked":"2026-04-28T19:22:35.812826+00:00","mss_si_n":3},{"id":"0x47a84e18b3915c4b:0x5cb58eed24cf91fd","name":"Einstein Kaffee","area":"Mitte","venue_type":"cafe","category":"Café","lat":52.521153,"lng":13.4149712,"star_rating":4.0,"total_reviews":4100,"removed_min":151,"removed_max":200,"removal_rate":0.04878048780487805,"status":"hit","last_checked":"2026-04-30T00:57:31.302215+00:00","mss_si_n":2},{"id":"0x47a84f0f4629ace3:0x7c137faf9183558d","name":"L'Osteria","area":"Friedrichshain","venue_type":"restaurant","category":"Italienisches Restaurant","lat":52.5053242,"lng":13.442284,"star_rating":4.4,"total_reviews":3990,"removed_min":151,"removed_max":200,"removal_rate":0.05012531328320802,"status":"hit","last_checked":"2026-04-28T20:07:55.634921+00:00","mss_si_n":2},{"id":"0x47a84f4640afff59:0x38a94307021b3d72","name":"Bear Burger","area":"Prenzlauer Berg","venue_type":"restaurant","category":"Hamburger restaurant","lat":52.5315788,"lng":13.4272554,"star_rating":4.8,"total_reviews":1372,"removed_min":151,"removed_max":200,"removal_rate":0.1457725947521866,"status":"hit","last_checked":"2026-04-28T20:47:00.549383+00:00","mss_si_n":2},{"id":"0x47a853d9039ffce9:0xd949404ecbef4e53","name":"El Dorando","area":"Reinickendorf","venue_type":"restaurant","category":"Steakhaus","lat":52.5739804,"lng":13.3584678,"star_rating":4.6,"total_reviews":512,"removed_min":151,"removed_max":200,"removal_rate":0.390625,"status":"hit","last_checked":"2026-04-28T22:31:31.600494+00:00","mss_si_n":2},{"id":"0x47a84f12cad48c17:0x2568983f36159f1b","name":"Of Eden","area":"Friedrichshain","venue_type":"restaurant","category":"Orientalisches Restaurant","lat":52.4975165,"lng":13.4624322,"star_rating":4.8,"total_reviews":1289,"removed_min":151,"removed_max":200,"removal_rate":0.1551590380139643,"status":"hit","last_checked":"2026-04-29T00:17:31.726452+00:00","mss_si_n":2},{"id":"0x47a85193c5fa8fb7:0x6df6ee19ce7755a5","name":"Smash by Hauptstadtburger","area":"Schöneberg","venue_type":"restaurant","category":"Burgerrestaurant","lat":52.50133,"lng":13.3434175,"star_rating":4.6,"total_reviews":723,"removed_min":151,"removed_max":200,"removal_rate":0.2766251728907331,"status":"hit","last_checked":"2026-04-29T07:05:49.178858+00:00","mss_si_n":2},{"id":"0x47a850e4e35e4403:0xe04899ef34787521","name":"Ristorante Paulo Scutarro","area":"Charlottenburg","venue_type":"restaurant","category":"Italienisches Restaurant","lat":52.5018097,"lng":13.3173239,"star_rating":4.7,"total_reviews":478,"removed_min":151,"removed_max":200,"removal_rate":0.41841004184100417,"status":"hit","last_checked":"2026-04-29T12:53:48.579706+00:00","mss_si_n":2},{"id":"0x47a850deeee9fbe7:0x8fa1114810eb375a","name":"Ziko's Grill","area":"Charlottenburg","venue_type":"restaurant","category":"Restaurant","lat":52.5077042,"lng":13.3024629,"star_rating":4.6,"total_reviews":784,"removed_min":151,"removed_max":200,"removal_rate":0.25510204081632654,"status":"hit","last_checked":"2026-04-29T13:02:47.371738+00:00","mss_si_n":2},{"id":"0x47a850e458f73475:0x87b5ad25a839deea","name":"Café Sets","area":"Charlottenburg","venue_type":"cafe","category":"Café","lat":52.5025064,"lng":13.3165682,"star_rating":4.5,"total_reviews":1047,"removed_min":151,"removed_max":200,"removal_rate":0.19102196752626552,"status":"hit","last_checked":"2026-04-29T14:14:28.943328+00:00","mss_si_n":2},{"id":"0x47a850fb433bb813:0xda397149f5fe5984","name":"What do you fancy love?","area":"Charlottenburg","venue_type":"cafe","category":"Café","lat":52.5029842,"lng":13.3223114,"star_rating":4.6,"total_reviews":1565,"removed_min":151,"removed_max":200,"removal_rate":0.12779552715654952,"status":"hit","last_checked":"2026-04-29T14:15:56.013785+00:00","mss_si_n":2},{"id":"0x47a850ff6dcd28ef:0x273486e54fe1e0b3","name":"RISTORANTE FERRIS","area":"Charlottenburg","venue_type":"restaurant","category":"Italienisches Restaurant","lat":52.5040099,"lng":13.335043,"star_rating":4.6,"total_reviews":325,"removed_min":151,"removed_max":200,"removal_rate":0.6153846153846154,"status":"hit","last_checked":"2026-04-29T14:37:21.939595+00:00","mss_si_n":2},{"id":"0x47a853ca39ab572d:0x5ed5a25456c03b87","name":"Bolu türkischer Supermarkt mit Fleisch- und Fischtheke","area":"Reinickendorf","venue_type":"other","category":"Supermarkt","lat":52.5678559,"lng":13.3619016,"star_rating":4.4,"total_reviews":896,"removed_min":151,"removed_max":200,"removal_rate":0.22321428571428573,"status":"hit","last_checked":"2026-04-29T18:57:51.925845+00:00","mss_si_n":null},{"id":"0x47a84fc953a10fc3:0xa9c83b4911481c80","name":"Tangs Kantine","area":"Kreuzberg","venue_type":"restaurant","category":"Chinesisches Restaurant","lat":52.4924846,"lng":13.4162999,"star_rating":4.7,"total_reviews":540,"removed_min":101,"removed_max":150,"removal_rate":null,"status":"hit","last_checked":"2026-04-27T00:09:00.403654+00:00","mss_si_n":2},{"id":"0x47a851c3cd43c323:0x28063ae038243078","name":"BAR TAUSEND","area":"Mitte","venue_type":"bar","category":"Bar","lat":52.5207369,"lng":13.3844524,"star_rating":4.7,"total_reviews":700,"removed_min":101,"removed_max":150,"removal_rate":null,"status":"hit","last_checked":"2026-04-27T00:35:30.898520+00:00","mss_si_n":1},{"id":"0x47a84e25a95a5777:0xbe5777787d44ebc9","name":"YADA YADA \"breakfast club\"","area":"Mitte","venue_type":"cafe","category":"Café","lat":52.511763,"lng":13.4135483,"star_rating":4.8,"total_reviews":1573,"removed_min":101,"removed_max":150,"removal_rate":null,"status":"hit","last_checked":"2026-04-27T00:48:42.975048+00:00","mss_si_n":2},{"id":"0x47a851e27ac3044b:0xf3bc497753ee233","name":"What do you fancy love?","area":"Mitte","venue_type":"cafe","category":"Café","lat":52.5283149,"lng":13.409662,"star_rating":4.6,"total_reviews":914,"removed_min":101,"removed_max":150,"removal_rate":null,"status":"hit","last_checked":"2026-04-27T00:55:50.758988+00:00","mss_si_n":2},{"id":"0x47a84e014748173b:0xda83b93ab8a12503","name":"Voulez Vous Bar","area":"Prenzlauer Berg","venue_type":"bar","category":"Cocktailbar","lat":52.5375945,"lng":13.4224222,"star_rating":4.8,"total_reviews":613,"removed_min":101,"removed_max":150,"removal_rate":null,"status":"hit","last_checked":"2026-04-27T01:21:44.050336+00:00","mss_si_n":2},{"id":"0x47a851a42a94348f:0x8894d1e57ee34b7c","name":"KINK Bar & Restaurant","area":"Prenzlauer Berg","venue_type":"restaurant","category":"Restaurant mit moderner europäischer Küche","lat":52.5319735,"lng":13.4115959,"star_rating":4.7,"total_reviews":1380,"removed_min":101,"removed_max":150,"removal_rate":null,"status":"hit","last_checked":"2026-04-27T01:26:19.585985+00:00","mss_si_n":2},{"id":"0x47a84ef73608b8f9:0xb2f715c915f28cfd","name":"Milja & Schäfa","area":"Friedrichshain","venue_type":"cafe","category":"Frühstückslokal","lat":52.5045699,"lng":13.4681074,"star_rating":4.7,"total_reviews":1790,"removed_min":101,"removed_max":150,"removal_rate":null,"status":"hit","last_checked":"2026-04-27T01:49:32.834339+00:00","mss_si_n":2},{"id":"0x47a84f306eaee5b7:0xc62f24ccdeb9e56e","name":"KALA Cafe","area":"Friedrichshain","venue_type":"cafe","category":"Café","lat":52.5118722,"lng":13.4528024,"star_rating":4.6,"total_reviews":818,"removed_min":101,"removed_max":150,"removal_rate":null,"status":"hit","last_checked":"2026-04-27T02:14:10.861735+00:00","mss_si_n":2},{"id":"0x47a85046adbf1cb3:0x2bd34cf41ce5097d","name":"Gasthaus Gottlob","area":"Schöneberg","venue_type":"cafe","category":"Café","lat":52.4893715,"lng":13.3535423,"star_rating":4.6,"total_reviews":1058,"removed_min":101,"removed_max":150,"removal_rate":null,"status":"hit","last_checked":"2026-04-27T03:00:18.528876+00:00","mss_si_n":2},{"id":"0x47a850510419473f:0xb0e156041a18b34b","name":"Maharadscha Indische Restaurant","area":"Schöneberg","venue_type":"restaurant","category":"Indisches Restaurant","lat":52.4987362,"lng":13.3450563,"star_rating":4.8,"total_reviews":1602,"removed_min":101,"removed_max":150,"removal_rate":null,"status":"hit","last_checked":"2026-04-27T03:02:08.828830+00:00","mss_si_n":2},{"id":"0x47a850498af84c41:0x191705263871da1","name":"Fadi Food Berlin","area":"Schöneberg","venue_type":"restaurant","category":"Restaurant","lat":52.4987584,"lng":13.3627517,"star_rating":4.7,"total_reviews":840,"removed_min":101,"removed_max":150,"removal_rate":null,"status":"hit","last_checked":"2026-04-27T03:06:14.616806+00:00","mss_si_n":3},{"id":"0x47a8504f016a78e5:0x791f891cc687af5b","name":"Green Door Bar","area":"Schöneberg","venue_type":"bar","category":"Cocktailbar","lat":52.4970352,"lng":13.3529749,"star_rating":4.8,"total_reviews":888,"removed_min":101,"removed_max":150,"removal_rate":null,"status":"hit","last_checked":"2026-04-27T03:08:58.046061+00:00","mss_si_n":2},{"id":"0x47a8513183d8790f:0x808f5a7bbab770c6","name":"Enzo's Café Berlin","area":"Schöneberg","venue_type":"cafe","category":"Café","lat":52.5047607,"lng":13.3417606,"star_rating":4.6,"total_reviews":714,"removed_min":101,"removed_max":150,"removal_rate":null,"status":"hit","last_checked":"2026-04-27T03:27:14.668860+00:00","mss_si_n":2},{"id":"0x47a84556e7eab091:0x5c9ef11cbb0ada94","name":"REDO XXL Berlin","area":"Tempelhof","venue_type":"restaurant","category":"Restaurant","lat":52.4545867,"lng":13.3848178,"star_rating":4.6,"total_reviews":2937,"removed_min":101,"removed_max":150,"removal_rate":null,"status":"hit","last_checked":"2026-04-27T03:35:27.046952+00:00","mss_si_n":2},{"id":"0x47a84ffc126ca89f:0x34370115e14f016","name":"TBS City Chicken in Tempelhof","area":"Tempelhof","venue_type":"restaurant","category":"Hähnchenrestaurant","lat":52.464929,"lng":13.3859241,"star_rating":4.7,"total_reviews":864,"removed_min":101,"removed_max":150,"removal_rate":null,"status":"hit","last_checked":"2026-04-27T03:40:49.717152+00:00","mss_si_n":2},{"id":"0x47a8504d44c5f667:0xf3fa8b227f7830e2","name":"Trompete - Berlin","area":"Tiergarten","venue_type":"other","category":"Nachtclub","lat":52.5044461,"lng":13.3535285,"star_rating":4.2,"total_reviews":436,"removed_min":101,"removed_max":150,"removal_rate":null,"status":"hit","last_checked":"2026-04-27T04:07:11.954918+00:00","mss_si_n":2},{"id":"0x47a853719d829181:0xfe2b5fac57bcf1c4","name":"Kabul Night","area":"Wedding","venue_type":"restaurant","category":"Afghanisches Restaurant","lat":52.5521441,"lng":13.3483692,"star_rating":4.6,"total_reviews":446,"removed_min":101,"removed_max":150,"removal_rate":null,"status":"hit","last_checked":"2026-04-27T04:23:37.582553+00:00","mss_si_n":2},{"id":"0x47a84dc25ea60fd9:0xdcb80a3fffaa1eaf","name":"La Famiglia","area":"Weißensee","venue_type":"restaurant","category":"Italienisches Restaurant","lat":52.5505293,"lng":13.4582024,"star_rating":4.5,"total_reviews":708,"removed_min":101,"removed_max":150,"removal_rate":null,"status":"hit","last_checked":"2026-04-27T04:47:42.394048+00:00","mss_si_n":2},{"id":"0x47a851ed29fb3815:0x49ec9a0336257cb2","name":"Golden Rice Mitte","area":"Mitte","venue_type":"restaurant","category":"Asiatisches Restaurant","lat":52.5320136,"lng":13.3815316,"star_rating":4.7,"total_reviews":1444,"removed_min":101,"removed_max":150,"removal_rate":0.1038781163434903,"status":"hit","last_checked":"2026-04-28T13:11:57.930061+00:00","mss_si_n":1},{"id":"0x47a851e0bbd2fa89:0x4d54d5150e339a21","name":"Mustafa's Can Gemüse Kebap","area":"Mitte","venue_type":"restaurant","category":"Döner-Restaurant","lat":52.5227326,"lng":13.401251,"star_rating":4.7,"total_reviews":3940,"removed_min":101,"removed_max":150,"removal_rate":0.03807106598984772,"status":"hit","last_checked":"2026-04-28T13:34:35.767274+00:00","mss_si_n":2},{"id":"0x47a851c31a482427:0xb065ab9061fec141","name":"Pergamon Döner","area":"Mitte","venue_type":"restaurant","category":"Kebabimbiss","lat":52.5202922,"lng":13.388084,"star_rating":4.6,"total_reviews":1128,"removed_min":101,"removed_max":150,"removal_rate":0.13297872340425532,"status":"hit","last_checked":"2026-04-28T13:35:31.307955+00:00","mss_si_n":2},{"id":"0x47a851eb39cab99b:0x5c1cbaec2befdeb8","name":"Curry Wolf Brandenburger Tor","area":"Mitte","venue_type":"restaurant","category":"Fast-Food-Restaurant","lat":52.5164316,"lng":13.3804302,"star_rating":4.6,"total_reviews":820,"removed_min":101,"removed_max":150,"removal_rate":0.18292682926829268,"status":"hit","last_checked":"2026-04-28T13:49:42.051607+00:00","mss_si_n":2},{"id":"0x47a8518ec0b27905:0x2eef6ff1d0485a7d","name":"Five Rivers Restaurant","area":"Mitte","venue_type":"restaurant","category":"Asiatisches Restaurant","lat":52.5215019,"lng":13.3847577,"star_rating":4.8,"total_reviews":2089,"removed_min":101,"removed_max":150,"removal_rate":0.07180469123982768,"status":"hit","last_checked":"2026-04-28T14:02:52.969404+00:00","mss_si_n":1},{"id":"0x47a851e7050d3cf5:0xf2a3f8ef9363277c","name":"Noodle Plus 宾临城下","area":"Mitte","venue_type":"restaurant","category":"Chinesisches Restaurant","lat":52.5136462,"lng":13.3813101,"star_rating":4.5,"total_reviews":1185,"removed_min":101,"removed_max":150,"removal_rate":0.12658227848101267,"status":"hit","last_checked":"2026-04-28T14:09:46.165092+00:00","mss_si_n":2},{"id":"0x47a851fb6419280f:0xe01eb03e9bb7f631","name":"Aapka - Indisches Restaurant Berlin","area":"Mitte","venue_type":"restaurant","category":"Indisches Restaurant","lat":52.5339958,"lng":13.4047851,"star_rating":4.6,"total_reviews":1607,"removed_min":101,"removed_max":150,"removal_rate":0.09334163036714374,"status":"hit","last_checked":"2026-04-28T14:41:34.807022+00:00","mss_si_n":1},{"id":"0x47a85146b41ada43:0x5cc76a2ad85b1595","name":"Saravanaa Bhavan","area":"Tiergarten","venue_type":"restaurant","category":"Südindisches Restaurant","lat":52.5102399,"lng":13.3760893,"star_rating":4.6,"total_reviews":2599,"removed_min":101,"removed_max":150,"removal_rate":0.057714505579068875,"status":"hit","last_checked":"2026-04-28T14:44:40.904711+00:00","mss_si_n":1},{"id":"0x47a851d4ba560abd:0x78e212edf1ef9b76","name":"Delhi 6 Indian Indisches Restaurant Berlin","area":"Kreuzberg","venue_type":"restaurant","category":"Indisches Restaurant","lat":52.5019381,"lng":13.3910945,"star_rating":4.7,"total_reviews":3149,"removed_min":101,"removed_max":150,"removal_rate":0.047634169577643694,"status":"hit","last_checked":"2026-04-28T14:46:53.208654+00:00","mss_si_n":4},{"id":"0x47a851cfca242c97:0xcda0fdec09644ff8","name":"Byblos Restaurant Berlin by Nassib Fadel","area":"Wilmersdorf","venue_type":"restaurant","category":"Libanesisches Restaurant","lat":52.4976817,"lng":13.3340756,"star_rating":4.9,"total_reviews":2779,"removed_min":101,"removed_max":150,"removal_rate":0.05397625044980209,"status":"hit","last_checked":"2026-04-28T15:00:20.276274+00:00","mss_si_n":2},{"id":"0x47a851e9974bb9cb:0x5cafc96937f9a427","name":"Ristorante Roma","area":"Mitte","venue_type":"restaurant","category":"Italienisches Restaurant","lat":52.5250653,"lng":13.3871531,"star_rating":4.4,"total_reviews":1975,"removed_min":101,"removed_max":150,"removal_rate":0.0759493670886076,"status":"hit","last_checked":"2026-04-28T15:22:08.964789+00:00","mss_si_n":1},{"id":"0x47a84e69d107214b:0x7d9b30ab5dfa17a6","name":"Acapulco Berlin","area":"Friedrichshain","venue_type":"restaurant","category":"Mexikanisches Restaurant","lat":52.5170555,"lng":13.4467829,"star_rating":4.6,"total_reviews":1155,"removed_min":101,"removed_max":150,"removal_rate":0.12987012987012986,"status":"hit","last_checked":"2026-04-28T15:34:03.930529+00:00","mss_si_n":2},{"id":"0x47a8506ed2c40df1:0x1b2c7463db4ae3e9","name":"Atlantik Fischrestaurant","area":"Schöneberg","venue_type":"restaurant","category":"Fischrestaurant","lat":52.4793694,"lng":13.3446149,"star_rating":4.5,"total_reviews":741,"removed_min":101,"removed_max":150,"removal_rate":0.20242914979757085,"status":"hit","last_checked":"2026-04-28T15:47:26.983839+00:00","mss_si_n":2},{"id":"0x47a851a70be3c5b9:0xfaf8e8ce7f725e54","name":"Restaurant Marjan Grill - Berlin","area":"Hansaviertel","venue_type":"restaurant","category":"Kroatisches Restaurant","lat":52.520105,"lng":13.346698,"star_rating":4.7,"total_reviews":2937,"removed_min":101,"removed_max":150,"removal_rate":0.05107252298263534,"status":"hit","last_checked":"2026-04-28T15:55:45.749604+00:00","mss_si_n":2},{"id":"0x47a851e97b0b4607:0xeac00ec9e04e2d22","name":"Pantry","area":"Mitte","venue_type":"restaurant","category":"Restaurant","lat":52.526615,"lng":13.3868762,"star_rating":4.8,"total_reviews":1086,"removed_min":101,"removed_max":150,"removal_rate":0.13812154696132597,"status":"hit","last_checked":"2026-04-28T16:02:07.417025+00:00","mss_si_n":1},{"id":"0x47a8518e5446ed29:0x414b04762b9f4b36","name":"BLESS Restaurant","area":"Mitte","venue_type":"restaurant","category":"Asiatisches Restaurant","lat":52.5124086,"lng":13.3967904,"star_rating":4.8,"total_reviews":2043,"removed_min":101,"removed_max":150,"removal_rate":0.07342143906020558,"status":"hit","last_checked":"2026-04-28T16:02:18.745183+00:00","mss_si_n":2},{"id":"0x47a851cfa9c7830d:0xccb057387faf641b","name":"Hauptstadtburger","area":"Mitte","venue_type":"restaurant","category":"Burgerrestaurant","lat":52.510374,"lng":13.3806212,"star_rating":4.5,"total_reviews":459,"removed_min":101,"removed_max":150,"removal_rate":0.32679738562091504,"status":"hit","last_checked":"2026-04-28T17:20:55.642998+00:00","mss_si_n":2},{"id":"0x47a84f56fb51c0f3:0xc25b11c59658af0c","name":"ZAGROS Veggie Kebabs","area":"Kreuzberg","venue_type":"restaurant","category":"Döner-Restaurant","lat":52.4994662,"lng":13.4284868,"star_rating":4.8,"total_reviews":3917,"removed_min":101,"removed_max":150,"removal_rate":0.038294613224406436,"status":"hit","last_checked":"2026-04-28T17:25:14.409843+00:00","mss_si_n":2},{"id":"0x47a84fed60d5c8db:0x9783a2ff952fd062","name":"Buya Ramen Factory","area":"Kreuzberg","venue_type":"restaurant","category":"Ramen-Restaurant","lat":52.4971335,"lng":13.4233648,"star_rating":4.6,"total_reviews":2623,"removed_min":101,"removed_max":150,"removal_rate":0.0571864277544796,"status":"hit","last_checked":"2026-04-28T17:38:24.400740+00:00","mss_si_n":2},{"id":"0x47a84e520d337f4b:0x9436df853c7b13c9","name":"Sadhu Restaurant","area":"Kreuzberg","venue_type":"restaurant","category":"Pakistanisches Restaurant","lat":52.4992686,"lng":13.4433338,"star_rating":4.8,"total_reviews":2108,"removed_min":101,"removed_max":150,"removal_rate":0.07115749525616698,"status":"hit","last_checked":"2026-04-28T18:10:54.566261+00:00","mss_si_n":2},{"id":"0x47a84f00b468ca13:0x8b50b211f4c9bf5b","name":"Verwöhn dein Bäuchlein","area":"Neukölln","venue_type":"restaurant","category":"Arabisches Restaurant","lat":52.4794094,"lng":13.4370326,"star_rating":4.8,"total_reviews":699,"removed_min":101,"removed_max":150,"removal_rate":0.2145922746781116,"status":"hit","last_checked":"2026-04-28T18:17:40.598612+00:00","mss_si_n":2},{"id":"0x47a84fcaece5c7fb:0x65dd309f56d77bb0","name":"Spindler","area":"Kreuzberg","venue_type":"restaurant","category":"Französisches Restaurant","lat":52.4962974,"lng":13.4212406,"star_rating":4.5,"total_reviews":1636,"removed_min":101,"removed_max":150,"removal_rate":0.09168704156479218,"status":"hit","last_checked":"2026-04-28T18:51:23.718424+00:00","mss_si_n":2},{"id":"0x47a850ff6186278f:0xee4ae787823c69c6","name":"Curry Wolf - Currywurst am Ku'damm","area":"Charlottenburg","venue_type":"restaurant","category":"Imbiss","lat":52.5038499,"lng":13.3355112,"star_rating":4.6,"total_reviews":1079,"removed_min":101,"removed_max":150,"removal_rate":0.13901760889712697,"status":"hit","last_checked":"2026-04-28T19:01:55.854162+00:00","mss_si_n":2},{"id":"0x416523b8cd270145:0x2f8e8b801345f353","name":"BURGERAMT","area":"Friedrichshain","venue_type":"restaurant","category":"Burgerrestaurant","lat":52.5102112,"lng":13.4596693,"star_rating":4.7,"total_reviews":4774,"removed_min":101,"removed_max":150,"removal_rate":0.03142019271051529,"status":"hit","last_checked":"2026-04-28T20:09:26.721328+00:00","mss_si_n":2},{"id":"0x47a84ef7368d0483:0x21f21ff1609186d","name":"Burgers Berlin","area":"Friedrichshain","venue_type":"restaurant","category":"Burgerrestaurant","lat":52.5047267,"lng":13.4677892,"star_rating":4.8,"total_reviews":1432,"removed_min":101,"removed_max":150,"removal_rate":0.10474860335195531,"status":"hit","last_checked":"2026-04-28T20:09:38.617917+00:00","mss_si_n":2},{"id":"0x47a84e4dbf2bea7d:0xccae6ecadfb66520","name":"Sumak","area":"Kreuzberg","venue_type":"restaurant","category":"Turkish restaurant","lat":52.4992437,"lng":13.4400475,"star_rating":4.7,"total_reviews":784,"removed_min":101,"removed_max":150,"removal_rate":0.1913265306122449,"status":"hit","last_checked":"2026-04-28T20:24:24.938739+00:00","mss_si_n":2},{"id":"0x47a851fe481312cb:0x91229c36dc7f149a","name":"Soda Club Berlin","area":"Prenzlauer Berg","venue_type":"other","category":"Night club","lat":52.539406,"lng":13.4143311,"star_rating":4.4,"total_reviews":1631,"removed_min":101,"removed_max":150,"removal_rate":0.09196811771919068,"status":"hit","last_checked":"2026-04-29T20:05:10.900569+00:00","mss_si_n":2},{"id":"0x47a8457fce5ffa73:0x8559eb099a6320ca","name":"Ketch'up 35","area":"Britz","venue_type":"bar","category":"Snack bar","lat":52.4521955,"lng":13.4314004,"star_rating":4.8,"total_reviews":2777,"removed_min":101,"removed_max":150,"removal_rate":0.05401512423478574,"status":"hit","last_checked":"2026-04-28T20:53:53.239867+00:00","mss_si_n":2},{"id":"0x47a84dfa288166d9:0xf28cb0b274d90f3f","name":"Agni","area":"Prenzlauer Berg","venue_type":"restaurant","category":"Indisches Restaurant","lat":52.5491906,"lng":13.4288355,"star_rating":4.7,"total_reviews":741,"removed_min":101,"removed_max":150,"removal_rate":0.20242914979757085,"status":"hit","last_checked":"2026-04-28T21:17:01.577534+00:00","mss_si_n":2},{"id":"0x47a84fe635abcf8d:0xa0887a886bda9495","name":"Jäger & Lustig","area":"Friedrichshain","venue_type":"restaurant","category":"Deutsches Restaurant","lat":52.5134052,"lng":13.4480361,"star_rating":4.6,"total_reviews":3052,"removed_min":101,"removed_max":150,"removal_rate":0.0491480996068152,"status":"hit","last_checked":"2026-04-28T22:32:41.034696+00:00","mss_si_n":2},{"id":"0x47a84f48ed1110a3:0x70d7e0fd96802025","name":"REDO XXL Uber Arena","area":"Friedrichshain","venue_type":"restaurant","category":"Restaurant","lat":52.5058568,"lng":13.4420765,"star_rating":4.5,"total_reviews":662,"removed_min":101,"removed_max":150,"removal_rate":0.22658610271903323,"status":"hit","last_checked":"2026-04-29T20:23:03.845261+00:00","mss_si_n":2},{"id":"0x47a84e6077d9ad35:0xde2bc26dde2aa671","name":"Pizza XXL","area":"Friedrichshain","venue_type":"restaurant","category":"Pizzeria","lat":52.5147157,"lng":13.4629491,"star_rating":4.8,"total_reviews":629,"removed_min":101,"removed_max":150,"removal_rate":0.2384737678855326,"status":"hit","last_checked":"2026-04-28T22:46:22.475636+00:00","mss_si_n":2},{"id":"0x47a84ef703f44547:0x799a440dddbfdcda","name":"Transit","area":"Friedrichshain","venue_type":"restaurant","category":"Thailändisches Restaurant","lat":52.5059628,"lng":13.4657423,"star_rating":4.5,"total_reviews":1288,"removed_min":101,"removed_max":150,"removal_rate":0.11645962732919254,"status":"hit","last_checked":"2026-04-28T23:45:30.273119+00:00","mss_si_n":2},{"id":"0x47a84ef6c868578f:0x76524bab083ea089","name":"Aceto Lokanta","area":"Friedrichshain","venue_type":"restaurant","category":"Pizzeria","lat":52.5070654,"lng":13.4687464,"star_rating":4.7,"total_reviews":653,"removed_min":101,"removed_max":150,"removal_rate":0.22970903522205208,"status":"hit","last_checked":"2026-04-28T23:59:55.546912+00:00","mss_si_n":2},{"id":"0x47a848d730360785:0x4aa0ffb48460bb50","name":"Syrtaki","area":"Karlshorst","venue_type":"restaurant","category":"Griechisches Restaurant","lat":52.4810811,"lng":13.5237692,"star_rating":4.6,"total_reviews":1307,"removed_min":101,"removed_max":150,"removal_rate":0.11476664116296863,"status":"hit","last_checked":"2026-04-29T00:43:34.775324+00:00","mss_si_n":2},{"id":"0x47a84fd9ca4379d5:0x99db64640a9e5898","name":"Felix Austria","area":"Kreuzberg","venue_type":"restaurant","category":"Restaurant","lat":52.4889165,"lng":13.3948073,"star_rating":4.7,"total_reviews":1201,"removed_min":101,"removed_max":150,"removal_rate":0.12489592006661115,"status":"hit","last_checked":"2026-04-29T01:03:32.470479+00:00","mss_si_n":2},{"id":"0x47a8510a9dda2f1f:0xac1a2f85d7e08573","name":"Beba","area":"Kreuzberg","venue_type":"restaurant","category":"Restaurant","lat":52.5066485,"lng":13.3819377,"star_rating":4.7,"total_reviews":354,"removed_min":101,"removed_max":150,"removal_rate":0.423728813559322,"status":"hit","last_checked":"2026-04-29T02:05:57.871833+00:00","mss_si_n":3},{"id":"0x47a851d2982ce84d:0x3ad239b915367df8","name":"Maracay Coffee","area":"Kreuzberg","venue_type":"other","category":"Coffeeshop","lat":52.5036478,"lng":13.3841389,"star_rating":4.6,"total_reviews":1014,"removed_min":101,"removed_max":150,"removal_rate":0.14792899408284024,"status":"hit","last_checked":"2026-04-30T02:38:52.561051+00:00","mss_si_n":3},{"id":"0x47a851a15a92533b:0x1ea2324def5fe79b","name":"Döner & Burger City","area":"Schöneberg","venue_type":"restaurant","category":"Restaurant","lat":52.4973897,"lng":13.3621312,"star_rating":4.7,"total_reviews":791,"removed_min":101,"removed_max":150,"removal_rate":0.18963337547408343,"status":"hit","last_checked":"2026-04-29T02:29:47.100562+00:00","mss_si_n":3},{"id":"0x47a851206b619d07:0x741dc5180d47d8cb","name":"Malakeh Restaurant","area":"Schöneberg","venue_type":"restaurant","category":"Syrisches Restaurant","lat":52.49538,"lng":13.36146,"star_rating":4.8,"total_reviews":1731,"removed_min":101,"removed_max":150,"removal_rate":0.08665511265164645,"status":"hit","last_checked":"2026-04-29T02:53:51.889967+00:00","mss_si_n":3},{"id":"0x47a85a316993b755:0xb0aeb87738716292","name":"Tomasa Villa Kreuzberg","area":"Kreuzberg","venue_type":"restaurant","category":"Restaurant","lat":52.4894688,"lng":13.3802681,"star_rating":4.5,"total_reviews":2430,"removed_min":101,"removed_max":150,"removal_rate":0.06172839506172839,"status":"hit","last_checked":"2026-04-29T02:57:58.963496+00:00","mss_si_n":2},{"id":"0x47a84fd667ddb21f:0x154999838af9ac1e","name":"FateFoodBag Berlin","area":"Kreuzberg","venue_type":"restaurant","category":"Fast-Food-Restaurant","lat":52.5036496,"lng":13.4098768,"star_rating":4.7,"total_reviews":250,"removed_min":101,"removed_max":150,"removal_rate":0.6,"status":"hit","last_checked":"2026-04-29T03:11:05.928168+00:00","mss_si_n":3},{"id":"0x47a84f8e1751f92b:0x12f7ffc53e9676cb","name":"Kotti Dang","area":"Neukölln","venue_type":"restaurant","category":"Restaurant","lat":52.4901753,"lng":13.4248057,"star_rating":4.8,"total_reviews":1496,"removed_min":101,"removed_max":150,"removal_rate":0.10026737967914438,"status":"hit","last_checked":"2026-04-29T03:30:59.624728+00:00","mss_si_n":2},{"id":"0x47a84fb7fe6f5abd:0x9c1761e143ea048a","name":"Döner Burger","area":"Neukölln","venue_type":"restaurant","category":"Fast-Food-Restaurant","lat":52.4740742,"lng":13.4560096,"star_rating":4.4,"total_reviews":441,"removed_min":101,"removed_max":150,"removal_rate":0.3401360544217687,"status":"hit","last_checked":"2026-04-29T04:30:01.742293+00:00","mss_si_n":2},{"id":"0x47a84f8d2b23b8a7:0x3cbac48f51b4ac12","name":"Dana Pani Berlin","area":"Britz","venue_type":"restaurant","category":"Indisches Restaurant","lat":52.4515962,"lng":13.4383849,"star_rating":4.4,"total_reviews":138,"removed_min":101,"removed_max":150,"removal_rate":1.0869565217391304,"status":"hit","last_checked":"2026-04-29T05:07:28.027106+00:00","mss_si_n":2},{"id":"0x47a8504ef4b16f71:0x2e092154656bca8","name":"BurgerZone","area":"Schöneberg","venue_type":"restaurant","category":"Fast-Food-Restaurant","lat":52.4987583,"lng":13.3538279,"star_rating":4.5,"total_reviews":1644,"removed_min":101,"removed_max":150,"removal_rate":0.09124087591240876,"status":"hit","last_checked":"2026-04-29T06:55:13.254994+00:00","mss_si_n":2},{"id":"0x47a85055de363625:0xc0e5f8175e8fd305","name":"Vapori","area":"Charlottenburg","venue_type":"restaurant","category":"Italienisches Restaurant","lat":52.5020228,"lng":13.3379171,"star_rating":4.8,"total_reviews":731,"removed_min":101,"removed_max":150,"removal_rate":0.2051983584131327,"status":"hit","last_checked":"2026-04-29T07:01:53.105329+00:00","mss_si_n":2},{"id":"0x47a8525cbf6749d1:0xa535328b2da5ceb2","name":"Trattoria del Corso","area":"Friedenau","venue_type":"restaurant","category":"Italienisches Restaurant","lat":52.4754322,"lng":13.3396397,"star_rating":4.5,"total_reviews":2455,"removed_min":101,"removed_max":150,"removal_rate":0.06109979633401222,"status":"hit","last_checked":"2026-04-29T09:51:24.691520+00:00","mss_si_n":2},{"id":"0x47a85112860d1921:0xc653bc934c777f90","name":"Baran Döner Station","area":"Moabit","venue_type":"restaurant","category":"Döner-Restaurant","lat":52.527435,"lng":13.3306348,"star_rating":4.7,"total_reviews":641,"removed_min":101,"removed_max":150,"removal_rate":0.23400936037441497,"status":"hit","last_checked":"2026-04-29T10:30:42.198548+00:00","mss_si_n":2},{"id":"0x47a8517975d3c6d7:0x817de2213fa99b02","name":"Pizza Pasta Salate","area":"Wedding","venue_type":"restaurant","category":"Pizzeria","lat":52.5415347,"lng":13.3487779,"star_rating":4.6,"total_reviews":502,"removed_min":101,"removed_max":150,"removal_rate":0.29880478087649404,"status":"hit","last_checked":"2026-04-29T10:41:56.529803+00:00","mss_si_n":2},{"id":"0x47a8510d0148040b:0x542d55e71e6026dc","name":"Bolu 7","area":"Moabit","venue_type":"other","category":"Lebensmittelhändler","lat":52.5268977,"lng":13.3356888,"star_rating":4.4,"total_reviews":410,"removed_min":101,"removed_max":150,"removal_rate":0.36585365853658536,"status":"hit","last_checked":"2026-04-29T11:03:37.276550+00:00","mss_si_n":2},{"id":"0x47a8510177db5ecb:0xab46d1282cea7967","name":"DARBAR","area":"Moabit","venue_type":"restaurant","category":"Indisches Restaurant","lat":52.5308239,"lng":13.330959,"star_rating":4.0,"total_reviews":87,"removed_min":101,"removed_max":150,"removal_rate":1.7241379310344827,"status":"hit","last_checked":"2026-04-29T11:17:09.087578+00:00","mss_si_n":2},{"id":"0x47a850e0ac4da607:0xf044dddaf61cc819","name":"Max & Moritz Food \"Wilmersdorf\"","area":"Charlottenburg","venue_type":"restaurant","category":"Kebabimbiss","lat":52.5055754,"lng":13.3072558,"star_rating":4.6,"total_reviews":621,"removed_min":101,"removed_max":150,"removal_rate":0.24154589371980675,"status":"hit","last_checked":"2026-04-29T12:15:53.608002+00:00","mss_si_n":2},{"id":"0x47a850fc3b9c0d43:0x16b007a8dfdf6d9a","name":"ROMERO","area":"Charlottenburg","venue_type":"restaurant","category":"Italienisches Restaurant","lat":52.5047699,"lng":13.32798,"star_rating":4.4,"total_reviews":1692,"removed_min":101,"removed_max":150,"removal_rate":0.08865248226950355,"status":"hit","last_checked":"2026-04-29T12:52:36.168886+00:00","mss_si_n":2},{"id":"0x47a857289a20b0b5:0x8b0309f89b7c96aa","name":"Indian Restaurant Rasas","area":"Westend","venue_type":"restaurant","category":"Indisches Restaurant","lat":52.512137,"lng":13.264336,"star_rating":4.8,"total_reviews":1157,"removed_min":101,"removed_max":150,"removal_rate":0.12964563526361278,"status":"hit","last_checked":"2026-04-29T13:32:07.543316+00:00","mss_si_n":2},{"id":"0x47a851205f5e3695:0xba97d77c3e55384","name":"Mr Chai-Wala","area":"Charlottenburg","venue_type":"restaurant","category":"Restaurant","lat":52.5063237,"lng":13.3171498,"star_rating":4.7,"total_reviews":1306,"removed_min":101,"removed_max":150,"removal_rate":0.11485451761102604,"status":"hit","last_checked":"2026-04-29T13:33:22.675019+00:00","mss_si_n":2},{"id":"0x47a850e25b514101:0xa123c99db2f4f463","name":"Pascarella","area":"Charlottenburg","venue_type":"restaurant","category":"Italienisches Restaurant","lat":52.5077863,"lng":13.3180796,"star_rating":4.6,"total_reviews":649,"removed_min":101,"removed_max":150,"removal_rate":0.23112480739599384,"status":"hit","last_checked":"2026-04-29T14:11:16.659198+00:00","mss_si_n":2},{"id":"0x47a850ef86bc58bb:0x2154d3960e2943ef","name":"TTP Sushi Berlin","area":"Wilmersdorf","venue_type":"restaurant","category":"Japanisches Restaurant","lat":52.4987385,"lng":13.3153264,"star_rating":4.7,"total_reviews":683,"removed_min":101,"removed_max":150,"removal_rate":0.21961932650073207,"status":"hit","last_checked":"2026-04-29T14:20:44.746875+00:00","mss_si_n":2},{"id":"0x47a8512a23ce1f87:0xe00ad8daf02ac0b5","name":"Call a Pizza Berlin Charlottenburg","area":"Charlottenburg","venue_type":"restaurant","category":"Pizza-Lieferdienst","lat":52.514711,"lng":13.28755,"star_rating":4.5,"total_reviews":196,"removed_min":101,"removed_max":150,"removal_rate":0.7653061224489796,"status":"hit","last_checked":"2026-04-29T14:29:38.223412+00:00","mss_si_n":2},{"id":"0x47a850e37e1b36bf:0x197faf4310d0cad3","name":"NU RESTAURANT","area":"Charlottenburg","venue_type":"restaurant","category":"Restaurant mit asiatischer Fusionsküche","lat":52.5043867,"lng":13.3176009,"star_rating":4.7,"total_reviews":1188,"removed_min":101,"removed_max":150,"removal_rate":0.12626262626262627,"status":"hit","last_checked":"2026-04-29T14:31:00.755235+00:00","mss_si_n":2},{"id":"0x47a850f706a57e29:0x8b40affeff2f3e11","name":"Call a Pizza Berlin Wilmersdorf","area":"Wilmersdorf","venue_type":"restaurant","category":"Pizza-Lieferdienst","lat":52.4953171,"lng":13.3277504,"star_rating":4.4,"total_reviews":153,"removed_min":101,"removed_max":150,"removal_rate":0.9803921568627451,"status":"hit","last_checked":"2026-04-29T14:45:40.965603+00:00","mss_si_n":2},{"id":"0x47a851c31b4c2347:0xf211ed877a7f1230","name":"Nhas City Chicken","area":"Charlottenburg","venue_type":"restaurant","category":"Hähnchenrestaurant","lat":52.5056961,"lng":13.3037466,"star_rating":4.6,"total_reviews":456,"removed_min":101,"removed_max":150,"removal_rate":0.32894736842105265,"status":"hit","last_checked":"2026-04-29T15:11:21.664038+00:00","mss_si_n":2},{"id":"0x47a8517ff6d5fcb1:0xaf4b7d1b24f962e5","name":"Risa Chicken","area":"Wedding","venue_type":"restaurant","category":"Fast-Food-Restaurant","lat":52.5475908,"lng":13.3574824,"star_rating":4.6,"total_reviews":2161,"removed_min":101,"removed_max":150,"removal_rate":0.06941230911614993,"status":"hit","last_checked":"2026-04-29T16:14:20.349766+00:00","mss_si_n":3},{"id":"0x47a853e524204c51:0x40dc8a4194a115cb","name":"Geheimwaffel","area":"Reinickendorf","venue_type":"cafe","category":"Eiscafé","lat":52.5740843,"lng":13.3584186,"star_rating":4.8,"total_reviews":498,"removed_min":101,"removed_max":150,"removal_rate":0.30120481927710846,"status":"hit","last_checked":"2026-04-30T06:47:53.669627+00:00","mss_si_n":2},{"id":"0x47a85224230fd949:0x7d34953109d3da76","name":"Ya Hala Chicken","area":"Gesundbrunnen","venue_type":"restaurant","category":"Hähnchenrestaurant","lat":52.5518006,"lng":13.3810017,"star_rating":4.7,"total_reviews":1182,"removed_min":101,"removed_max":150,"removal_rate":0.12690355329949238,"status":"hit","last_checked":"2026-04-29T17:03:27.087156+00:00","mss_si_n":4},{"id":"0x47a852424f933c9b:0x49f84ae401ce0fc5","name":"Sushi For You Pankow","area":"Niederschönhausen","venue_type":"restaurant","category":"Sushi-Restaurant","lat":52.5728789,"lng":13.3985934,"star_rating":4.7,"total_reviews":190,"removed_min":101,"removed_max":150,"removal_rate":0.7894736842105263,"status":"hit","last_checked":"2026-04-29T17:38:50.299791+00:00","mss_si_n":null},{"id":"0x47a85341671d998f:0x1ad1c458c68415c9","name":"Eisdiele Angelina","area":"Lübars","venue_type":"cafe","category":"Eiscafé","lat":52.6178481,"lng":13.3544957,"star_rating":4.6,"total_reviews":1059,"removed_min":101,"removed_max":150,"removal_rate":0.141643059490085,"status":"hit","last_checked":"2026-04-30T07:29:05.721738+00:00","mss_si_n":null},{"id":"0x47a851d36a492f59:0x7aa5869949631a00","name":"Mama Cook","area":"Kreuzberg","venue_type":"restaurant","category":"Vietnamesisches Restaurant","lat":52.5029392,"lng":13.3886047,"star_rating":4.6,"total_reviews":3435,"removed_min":51,"removed_max":100,"removal_rate":0.02911208151382824,"status":"hit","last_checked":"2026-04-27T11:34:09.979473+00:00","mss_si_n":4},{"id":"0x47a84fcb812d459d:0x113bcb22f7254348","name":"Defne - mediterran türkische Küche","area":"Kreuzberg","venue_type":"restaurant","category":"Restaurant","lat":52.4953624,"lng":13.4177063,"star_rating":4.8,"total_reviews":619,"removed_min":51,"removed_max":100,"removal_rate":null,"status":"hit","last_checked":"2026-04-26T23:44:57.463793+00:00","mss_si_n":2},{"id":"0x47a851da6195e023:0xd7d03f75d0e7636b","name":"Hatay Ocakbasi","area":"Kreuzberg","venue_type":"restaurant","category":"Türkisches Restaurant","lat":52.50686,"lng":13.38971,"star_rating":4.8,"total_reviews":1363,"removed_min":51,"removed_max":100,"removal_rate":null,"status":"hit","last_checked":"2026-04-26T23:46:31.181435+00:00","mss_si_n":4},{"id":"0x47a851e7543d44e5:0xa91670cb7126bdbd","name":"Cowei Restaurant - Asian Fusion Berlin","area":"Mitte","venue_type":"restaurant","category":"Asiatisches Restaurant","lat":52.5259259,"lng":13.38825,"star_rating":4.7,"total_reviews":1806,"removed_min":51,"removed_max":100,"removal_rate":null,"status":"hit","last_checked":"2026-04-27T00:23:47.633586+00:00","mss_si_n":2},{"id":"0x47a851e092883885:0x9de725067c88ceee","name":"Restauration 1840","area":"Mitte","venue_type":"restaurant","category":"Deutsches Restaurant","lat":52.5227808,"lng":13.4026411,"star_rating":4.6,"total_reviews":2844,"removed_min":51,"removed_max":100,"removal_rate":null,"status":"hit","last_checked":"2026-04-27T00:26:35.815442+00:00","mss_si_n":2},{"id":"0x47a851ef45a4d26b:0xb8aa817624cb0c48","name":"gärtnerei gastwirtschaft","area":"Mitte","venue_type":"restaurant","category":"Restaurant","lat":52.5287678,"lng":13.3941207,"star_rating":4.7,"total_reviews":408,"removed_min":51,"removed_max":100,"removal_rate":null,"status":"hit","last_checked":"2026-04-27T00:29:38.096130+00:00","mss_si_n":1},{"id":"0x47a851e44fd8c515:0xab2c958348b6eb13","name":"Sucre Et Sel","area":"Mitte","venue_type":"restaurant","category":"Französisches Restaurant","lat":52.5294238,"lng":13.4001345,"star_rating":4.7,"total_reviews":1134,"removed_min":51,"removed_max":100,"removal_rate":null,"status":"hit","last_checked":"2026-04-27T00:32:22.768987+00:00","mss_si_n":2},{"id":"0x47a851e951c046d1:0xbb6deb5af60c9169","name":"Mundo - Tapas Bar - Mitte","area":"Kreuzberg","venue_type":"restaurant","category":"Spanisches Restaurant","lat":52.5075423,"lng":13.3897349,"star_rating":4.7,"total_reviews":1561,"removed_min":51,"removed_max":100,"removal_rate":null,"status":"hit","last_checked":"2026-04-27T00:41:56.605940+00:00","mss_si_n":4},{"id":"0x47a851f08f806aef:0x54b8188574105637","name":"Du Bonheur","area":"Mitte","venue_type":"other","category":"Patisserie","lat":52.536243,"lng":13.397867,"star_rating":4.8,"total_reviews":1487,"removed_min":51,"removed_max":100,"removal_rate":null,"status":"hit","last_checked":"2026-04-27T00:51:56.213784+00:00","mss_si_n":1},{"id":"0x47a851fc06714413:0x4c423e1c06c3cd11","name":"Babel","area":"Prenzlauer Berg","venue_type":"restaurant","category":"Libanesisches Restaurant","lat":52.5367182,"lng":13.4074297,"star_rating":4.7,"total_reviews":2493,"removed_min":51,"removed_max":100,"removal_rate":null,"status":"hit","last_checked":"2026-04-27T01:12:40.115494+00:00","mss_si_n":2},{"id":"0x47a851b1f7464da9:0x4bffbd56e9e65605","name":"60 seconds to napoli Berlin / Oderbergerstr","area":"Prenzlauer Berg","venue_type":"restaurant","category":"Pizzeria","lat":52.5377143,"lng":13.4112542,"star_rating":4.5,"total_reviews":8100,"removed_min":51,"removed_max":100,"removal_rate":null,"status":"hit","last_checked":"2026-04-27T01:13:00.831579+00:00","mss_si_n":2},{"id":"0x47a851ff8a5d2e43:0x41174a1dfe79bf5f","name":"August Fengler","area":"Prenzlauer Berg","venue_type":"bar","category":"Kneipe","lat":52.5417116,"lng":13.415009,"star_rating":4.6,"total_reviews":750,"removed_min":51,"removed_max":100,"removal_rate":null,"status":"hit","last_checked":"2026-04-27T01:26:35.402580+00:00","mss_si_n":2},{"id":"0x47a84e396739d1f1:0xb3a63c5f24fceb48","name":"Katerschmaus","area":"Friedrichshain","venue_type":"restaurant","category":"Restaurant mit moderner europäischer Küche","lat":52.5112292,"lng":13.4266686,"star_rating":4.5,"total_reviews":1297,"removed_min":51,"removed_max":100,"removal_rate":null,"status":"hit","last_checked":"2026-04-27T01:50:30.870126+00:00","mss_si_n":2},{"id":"0x47a84f5443e757d3:0x71edb10759d01398","name":"The Hummus Club","area":"Friedrichshain","venue_type":"restaurant","category":"Libanesisches Restaurant","lat":52.5124857,"lng":13.4587523,"star_rating":4.8,"total_reviews":546,"removed_min":51,"removed_max":100,"removal_rate":null,"status":"hit","last_checked":"2026-04-27T01:55:30.949999+00:00","mss_si_n":2},{"id":"0x47a84f51d4f27e6b:0x6bfce598b95d31c6","name":"Stilbruch Kaffee","area":"Friedrichshain","venue_type":"cafe","category":"Frühstückslokal","lat":52.5083118,"lng":13.4534577,"star_rating":4.7,"total_reviews":1916,"removed_min":51,"removed_max":100,"removal_rate":null,"status":"hit","last_checked":"2026-04-27T02:11:30.196426+00:00","mss_si_n":2},{"id":"0x47a84f47d4e6dab3:0x7043706e85d78d0d","name":"La maison bleue","area":"Neukölln","venue_type":"restaurant","category":"Tunesisches Restaurant","lat":52.4901202,"lng":13.4343971,"star_rating":4.8,"total_reviews":1103,"removed_min":51,"removed_max":100,"removal_rate":null,"status":"hit","last_checked":"2026-04-27T02:23:56.795062+00:00","mss_si_n":2},{"id":"0x47a84fb004975df7:0x995ee9bff8a2e814","name":"Beuster","area":"Neukölln","venue_type":"restaurant","category":"Restaurant","lat":52.4859996,"lng":13.4353926,"star_rating":4.8,"total_reviews":649,"removed_min":51,"removed_max":100,"removal_rate":null,"status":"hit","last_checked":"2026-04-27T02:28:14.155605+00:00","mss_si_n":2},{"id":"0x47a84fd16c6c180f:0xfb4e32aed8c46fb6","name":"Caputo || Original Pizza aus Neapel","area":"Neukölln","venue_type":"restaurant","category":"Italienisches Restaurant","lat":52.4921942,"lng":13.4243108,"star_rating":4.9,"total_reviews":1322,"removed_min":51,"removed_max":100,"removal_rate":null,"status":"hit","last_checked":"2026-04-27T02:29:09.190059+00:00","mss_si_n":2},{"id":"0x47a84fc2edba804d:0xec0c97ba5a3b6619","name":"Orangerie Neukölln","area":"Neukölln","venue_type":"bar","category":"Bar","lat":52.4708187,"lng":13.4367838,"star_rating":4.7,"total_reviews":464,"removed_min":51,"removed_max":100,"removal_rate":null,"status":"hit","last_checked":"2026-04-27T02:30:06.357337+00:00","mss_si_n":3},{"id":"0x47a84fbaa44d400f:0x4ea09d3d06b6481e","name":"City Chicken das Original seit 1996","area":"Neukölln","venue_type":"restaurant","category":"Hähnchenrestaurant","lat":52.4849047,"lng":13.434017,"star_rating":4.7,"total_reviews":2692,"removed_min":51,"removed_max":100,"removal_rate":null,"status":"hit","last_checked":"2026-04-27T02:30:43.265968+00:00","mss_si_n":2},{"id":"0x47a85050496fed65:0x58d2bb44d2cb743f","name":"Sissi Restaurant","area":"Schöneberg","venue_type":"restaurant","category":"Österreichisches Restaurant","lat":52.4975787,"lng":13.3467751,"star_rating":4.8,"total_reviews":1291,"removed_min":51,"removed_max":100,"removal_rate":null,"status":"hit","last_checked":"2026-04-27T02:58:08.560343+00:00","mss_si_n":2},{"id":"0x47a8504ee307db45:0x96ea8d703229fa3b","name":"Nachbar","area":"Schöneberg","venue_type":"bar","category":"Bar","lat":52.4975059,"lng":13.3541682,"star_rating":4.9,"total_reviews":1015,"removed_min":51,"removed_max":100,"removal_rate":null,"status":"hit","last_checked":"2026-04-27T03:10:29.451267+00:00","mss_si_n":2},{"id":"0x47a8506984dfd2f5:0x4d41de115e89c333","name":"Queens","area":"Schöneberg","venue_type":"bar","category":"Bar","lat":52.4821272,"lng":13.3483535,"star_rating":4.6,"total_reviews":347,"removed_min":51,"removed_max":100,"removal_rate":null,"status":"hit","last_checked":"2026-04-27T03:17:15.521315+00:00","mss_si_n":2},{"id":"0x47a8510eadcd35f3:0xd378690fd807476d","name":"Velvet Coffee Berlin","area":"Schöneberg","venue_type":"cafe","category":"Frühstückslokal","lat":52.4847759,"lng":13.3542222,"star_rating":4.7,"total_reviews":332,"removed_min":51,"removed_max":100,"removal_rate":null,"status":"hit","last_checked":"2026-04-27T03:23:37.202239+00:00","mss_si_n":3},{"id":"0x47a8503a3288fcfd:0x4a62c3365979a99b","name":"Ristorante Café Aroma","area":"Schöneberg","venue_type":"restaurant","category":"Italienisches Restaurant","lat":52.4900879,"lng":13.3693658,"star_rating":4.6,"total_reviews":409,"removed_min":51,"removed_max":100,"removal_rate":null,"status":"hit","last_checked":"2026-04-27T03:29:15.705800+00:00","mss_si_n":2},{"id":"0x47a8518f44d2a465:0xfdf558db37a41668","name":"Paulaner Wirtshaus Berlin","area":"Tiergarten","venue_type":"restaurant","category":"Restaurant mit europäischer Küche","lat":52.5084465,"lng":13.3751768,"star_rating":4.4,"total_reviews":2141,"removed_min":51,"removed_max":100,"removal_rate":null,"status":"hit","last_checked":"2026-04-27T03:55:50.070218+00:00","mss_si_n":1},{"id":"0x47a8539cc02b98ed:0xcf82ee4dd0e72523","name":"Khatoon persisches Restaurant","area":"Wedding","venue_type":"restaurant","category":"Restaurant","lat":52.5516458,"lng":13.3554794,"star_rating":4.8,"total_reviews":732,"removed_min":51,"removed_max":100,"removal_rate":null,"status":"hit","last_checked":"2026-04-27T04:13:55.703031+00:00","mss_si_n":3},{"id":"0x47a851b0c5e19dc5:0x45903bb487441b45","name":"Verwöhn dein Bäuchlein","area":"Wedding","venue_type":"restaurant","category":"Restaurant","lat":52.5473403,"lng":13.3584953,"star_rating":4.8,"total_reviews":483,"removed_min":51,"removed_max":100,"removal_rate":null,"status":"hit","last_checked":"2026-04-27T04:23:01.902937+00:00","mss_si_n":3},{"id":"0x47a8517fd13eee61:0x8e02c1e9388f95ba","name":"Mon Rêve Café","area":"Wedding","venue_type":"bar","category":"Shisha-Bar","lat":52.5432529,"lng":13.3641547,"star_rating":4.6,"total_reviews":850,"removed_min":51,"removed_max":100,"removal_rate":null,"status":"hit","last_checked":"2026-04-27T04:32:08.996058+00:00","mss_si_n":2},{"id":"0x47a8517c75ce676d:0xfd62c45ebfcd2228","name":"Coffee Circle Wedding","area":"Wedding","venue_type":"cafe","category":"Café","lat":52.5438563,"lng":13.3677831,"star_rating":4.5,"total_reviews":839,"removed_min":51,"removed_max":100,"removal_rate":null,"status":"hit","last_checked":"2026-04-27T04:38:13.544859+00:00","mss_si_n":4},{"id":"0x47a853d6378ffca7:0x1f0c2ba1b0903cae","name":"Familiencafé Zaunkönig","area":"Wedding","venue_type":"cafe","category":"Café","lat":52.5507381,"lng":13.3488262,"star_rating":4.7,"total_reviews":336,"removed_min":51,"removed_max":100,"removal_rate":null,"status":"hit","last_checked":"2026-04-27T04:43:23.761527+00:00","mss_si_n":2},{"id":"0x47a851b33fe90fa7:0x737cb203ff342511","name":"meet me halfway Berlin","area":"Mitte","venue_type":"restaurant","category":"Persisches Restaurant","lat":52.5319419,"lng":13.3832472,"star_rating":4.8,"total_reviews":3098,"removed_min":51,"removed_max":100,"removal_rate":0.03227888960619755,"status":"hit","last_checked":"2026-04-28T13:11:26.930420+00:00","mss_si_n":1},{"id":"0x47a851ecc95104cf:0x6f34e572b4da8bb4","name":"Nomad Berlin","area":"Mitte","venue_type":"restaurant","category":"Restaurant","lat":52.5295975,"lng":13.3894907,"star_rating":4.7,"total_reviews":1436,"removed_min":51,"removed_max":100,"removal_rate":0.06963788300835655,"status":"hit","last_checked":"2026-04-28T13:12:13.525225+00:00","mss_si_n":1},{"id":"0x47a8519d38279af3:0xed6b8ef1dde78ba8","name":"FREA Bakery","area":"Mitte","venue_type":"cafe","category":"Bäckerei","lat":52.5302132,"lng":13.3919477,"star_rating":4.5,"total_reviews":1057,"removed_min":51,"removed_max":100,"removal_rate":0.0946073793755913,"status":"hit","last_checked":"2026-04-30T00:06:17.927966+00:00","mss_si_n":1},{"id":"0x47a851f0c11bacd1:0x2a91528a5da491f9","name":"Café Hermann Eicke","area":"Mitte","venue_type":"cafe","category":"Café","lat":52.5373329,"lng":13.3970559,"star_rating":4.5,"total_reviews":587,"removed_min":51,"removed_max":100,"removal_rate":0.17035775127768313,"status":"hit","last_checked":"2026-04-30T00:07:17.846513+00:00","mss_si_n":1},{"id":"0x47a851235f271085:0xfbb6dc76d88eead9","name":"Capvin","area":"Mitte","venue_type":"restaurant","category":"Pizzeria","lat":52.5307411,"lng":13.401757,"star_rating":4.6,"total_reviews":1593,"removed_min":51,"removed_max":100,"removal_rate":0.06277463904582549,"status":"hit","last_checked":"2026-04-28T13:23:27.948381+00:00","mss_si_n":1},{"id":"0x47a851e62b20fddb:0xde2046f68cd4c4fe","name":"Ristorante Pizzeria Garda","area":"Mitte","venue_type":"restaurant","category":"Italienisches Restaurant","lat":52.5258685,"lng":13.3942209,"star_rating":4.7,"total_reviews":1441,"removed_min":51,"removed_max":100,"removal_rate":0.06939625260235947,"status":"hit","last_checked":"2026-04-28T13:23:41.492899+00:00","mss_si_n":2},{"id":"0x47a851e3ee69e807:0x1f730caefd6dbfe8","name":"Sisal","area":"Mitte","venue_type":"restaurant","category":"Italienisches Restaurant","lat":52.5278386,"lng":13.403551,"star_rating":4.8,"total_reviews":695,"removed_min":51,"removed_max":100,"removal_rate":0.14388489208633093,"status":"hit","last_checked":"2026-04-28T13:25:36.580990+00:00","mss_si_n":2},{"id":"0x47a851d3b74fab81:0xc693deb8700d900","name":"BurgerVision","area":"Mitte","venue_type":"restaurant","category":"Burgerrestaurant","lat":52.5294444,"lng":13.4005556,"star_rating":4.6,"total_reviews":763,"removed_min":51,"removed_max":100,"removal_rate":0.1310615989515072,"status":"hit","last_checked":"2026-04-28T13:27:53.129824+00:00","mss_si_n":2},{"id":"0x47a85192acb298d1:0xc0caf4e49fff5cf3","name":"BEEF 63 HOUSE Best Döner Berlin – Schnell, Lecker, Frisch!","area":"Mitte","venue_type":"restaurant","category":"Döner-Restaurant","lat":52.5237767,"lng":13.4001697,"star_rating":4.7,"total_reviews":902,"removed_min":51,"removed_max":100,"removal_rate":0.11086474501108648,"status":"hit","last_checked":"2026-04-28T13:34:49.670448+00:00","mss_si_n":2},{"id":"0x47a851ff034c0cb9:0xcc0eea070ba18b04","name":"K'Ups Gemüsekebap","area":"Prenzlauer Berg","venue_type":"restaurant","category":"Kebabimbiss","lat":52.5398109,"lng":13.4113164,"star_rating":4.8,"total_reviews":2003,"removed_min":51,"removed_max":100,"removal_rate":0.04992511233150274,"status":"hit","last_checked":"2026-04-28T13:36:26.705397+00:00","mss_si_n":2},{"id":"0x47a85367d070b7cd:0xa2e514eeefc083ab","name":"Restaurant Hamdi Baba","area":"Gesundbrunnen","venue_type":"restaurant","category":"Türkisches Restaurant","lat":52.552468,"lng":13.3821229,"star_rating":4.9,"total_reviews":524,"removed_min":51,"removed_max":100,"removal_rate":0.19083969465648856,"status":"hit","last_checked":"2026-04-28T13:38:27.187551+00:00","mss_si_n":3},{"id":"0x47a84e1fe7f8d0dd:0xa205a94ae572bf80","name":"berlincurrys","area":"Mitte","venue_type":"restaurant","category":"Imbiss","lat":52.5222103,"lng":13.408421,"star_rating":4.6,"total_reviews":1232,"removed_min":51,"removed_max":100,"removal_rate":0.08116883116883117,"status":"hit","last_checked":"2026-04-28T13:49:02.024190+00:00","mss_si_n":2},{"id":"0x47a851e4bdc008eb:0x80bd37e4d3738fb2","name":"Yumcha Heroes","area":"Mitte","venue_type":"restaurant","category":"Chinesisches Restaurant","lat":52.5311397,"lng":13.4027174,"star_rating":4.4,"total_reviews":1704,"removed_min":51,"removed_max":100,"removal_rate":0.05868544600938967,"status":"hit","last_checked":"2026-04-28T14:17:41.793778+00:00","mss_si_n":1},{"id":"0x47a851c991eb3569:0x9a3b94784082a03c","name":"Anjappar Chettinad Indian Restaurant","area":"Mitte","venue_type":"restaurant","category":"Südindisches Restaurant","lat":52.5076638,"lng":13.3871721,"star_rating":4.4,"total_reviews":756,"removed_min":51,"removed_max":100,"removal_rate":0.13227513227513227,"status":"hit","last_checked":"2026-04-28T14:47:19.008614+00:00","mss_si_n":2},{"id":"0x47a851cf98ce2f6f:0x166c851fa5664702","name":"TERAS Döner Kebab","area":"Mitte","venue_type":"restaurant","category":"Döner-Restaurant","lat":52.5117229,"lng":13.3835554,"star_rating":4.8,"total_reviews":7934,"removed_min":51,"removed_max":100,"removal_rate":0.012603982858583312,"status":"hit","last_checked":"2026-04-28T14:50:50.374625+00:00","mss_si_n":2},{"id":"0x47a85175aefafefd:0x5eceadd2be1efb5c","name":"Osmanya","area":"Moabit","venue_type":"restaurant","category":"Türkisches Restaurant","lat":52.5311136,"lng":13.3469357,"star_rating":4.7,"total_reviews":794,"removed_min":51,"removed_max":100,"removal_rate":0.12594458438287154,"status":"hit","last_checked":"2026-04-28T14:51:43.805726+00:00","mss_si_n":2},{"id":"0x47a84dffd30fbdf5:0x2561a863cf59b7cf","name":"Al Hamra","area":"Prenzlauer Berg","venue_type":"restaurant","category":"Arabisches Restaurant","lat":52.5417705,"lng":13.4209741,"star_rating":4.7,"total_reviews":1335,"removed_min":51,"removed_max":100,"removal_rate":0.0749063670411985,"status":"hit","last_checked":"2026-04-28T14:59:50.825498+00:00","mss_si_n":2},{"id":"0x47a84f9aa0d4d353:0xca85dbb7a531b9df","name":"Arabic Diner AKRAM","area":"Neukölln","venue_type":"restaurant","category":"Orientalisches Restaurant","lat":52.46562,"lng":13.4260999,"star_rating":4.7,"total_reviews":381,"removed_min":51,"removed_max":100,"removal_rate":0.26246719160104987,"status":"hit","last_checked":"2026-04-28T15:01:32.298778+00:00","mss_si_n":3},{"id":"0x47a8514896de406b:0xc63c83ced5c94148","name":"Aplo Greek Kitchen (Torstrasse)","area":"Mitte","venue_type":"restaurant","category":"Griechisches Restaurant","lat":52.5295559,"lng":13.4023004,"star_rating":4.7,"total_reviews":1097,"removed_min":51,"removed_max":100,"removal_rate":0.09115770282588878,"status":"hit","last_checked":"2026-04-28T15:12:20.164321+00:00","mss_si_n":2},{"id":"0x47a8510f4bcac0cb:0x62f18d8fb5517fba","name":"Little Italy","area":"Mitte","venue_type":"restaurant","category":"Italienisches Restaurant","lat":52.5139129,"lng":13.3809702,"star_rating":4.7,"total_reviews":2385,"removed_min":51,"removed_max":100,"removal_rate":0.041928721174004195,"status":"hit","last_checked":"2026-04-28T15:22:32.628652+00:00","mss_si_n":2},{"id":"0x47a851ce3d811cc9:0xf24386df1d5d4c90","name":"VOLK","area":"Mitte","venue_type":"restaurant","category":"Französisches Restaurant","lat":52.5315804,"lng":13.3995092,"star_rating":4.7,"total_reviews":440,"removed_min":51,"removed_max":100,"removal_rate":0.22727272727272727,"status":"hit","last_checked":"2026-04-28T15:28:26.509405+00:00","mss_si_n":1},{"id":"0x47a850d44e31b0e3:0x65dd9f2044a1fa61","name":"Cancún - Charlottenburg","area":"Westend","venue_type":"restaurant","category":"Mexikanisches Restaurant","lat":52.5103382,"lng":13.2829739,"star_rating":4.7,"total_reviews":2862,"removed_min":51,"removed_max":100,"removal_rate":0.03494060097833683,"status":"hit","last_checked":"2026-04-28T15:32:49.285038+00:00","mss_si_n":2},{"id":"0x47a851f9ed961b2d:0x274195dd9d9bd4ab","name":"Fase Lunar","area":"Charlottenburg","venue_type":"restaurant","category":"Mediterranes Restaurant","lat":52.5051925,"lng":13.3232282,"star_rating":4.8,"total_reviews":409,"removed_min":51,"removed_max":100,"removal_rate":0.24449877750611246,"status":"hit","last_checked":"2026-04-28T15:34:44.852513+00:00","mss_si_n":2},{"id":"0x47a851173f074dc5:0xb85927c00f236d09","name":"The Catch","area":"Charlottenburg","venue_type":"restaurant","category":"Japanisches Restaurant","lat":52.5031035,"lng":13.3199947,"star_rating":4.8,"total_reviews":831,"removed_min":51,"removed_max":100,"removal_rate":0.12033694344163658,"status":"hit","last_checked":"2026-04-28T15:50:28.637897+00:00","mss_si_n":2},{"id":"0x47a84e25a9bba487:0x27fa97f2a2c1a634","name":"The Brooklyn","area":"Mitte","venue_type":"restaurant","category":"Steakhouse","lat":52.5117542,"lng":13.4137262,"star_rating":4.8,"total_reviews":514,"removed_min":51,"removed_max":100,"removal_rate":0.19455252918287938,"status":"hit","last_checked":"2026-04-28T15:51:38.537705+00:00","mss_si_n":2},{"id":"0x47a84f0025de9b57:0x813ec26978c4156c","name":"Beast Berlin","area":"Mitte","venue_type":"restaurant","category":"Restaurant","lat":52.5247687,"lng":13.4121758,"star_rating":4.7,"total_reviews":1714,"removed_min":51,"removed_max":100,"removal_rate":0.058343057176196034,"status":"hit","last_checked":"2026-04-28T15:52:03.750011+00:00","mss_si_n":2},{"id":"0x47a851d1a4535421:0xb29d670889aa2b7f","name":"La Via del Muro","area":"Mitte","venue_type":"restaurant","category":"Italienisches Restaurant","lat":52.508814,"lng":13.3885232,"star_rating":4.8,"total_reviews":3900,"removed_min":51,"removed_max":100,"removal_rate":0.02564102564102564,"status":"hit","last_checked":"2026-04-28T17:15:36.358181+00:00","mss_si_n":2},{"id":"0x47a85118569d896d:0x65b810a29d053666","name":"Call a Pizza Berlin Mitte","area":"Mitte","venue_type":"restaurant","category":"Pizzaservice","lat":52.512286,"lng":13.3840073,"star_rating":4.8,"total_reviews":100,"removed_min":51,"removed_max":100,"removal_rate":1.0,"status":"hit","last_checked":"2026-04-28T17:19:35.941852+00:00","mss_si_n":2},{"id":"0x47a85194159b0a6b:0x5ff3bb1886f24b25","name":"Florya's Burger House","area":"Tiergarten","venue_type":"restaurant","category":"Burgerrestaurant","lat":52.5031734,"lng":13.3661651,"star_rating":4.7,"total_reviews":387,"removed_min":51,"removed_max":100,"removal_rate":0.25839793281653745,"status":"hit","last_checked":"2026-04-28T17:21:19.992502+00:00","mss_si_n":2},{"id":"0x47a85053f0d226f1:0xa5c6fb4dbcad1aef","name":"Avci Bistro","area":"Schöneberg","venue_type":"restaurant","category":"Döner-Restaurant","lat":52.5021297,"lng":13.3431521,"star_rating":4.8,"total_reviews":525,"removed_min":51,"removed_max":100,"removal_rate":0.19047619047619047,"status":"hit","last_checked":"2026-04-28T17:23:32.851974+00:00","mss_si_n":2},{"id":"0x47a8504ef3452a57:0xa3da3276ae5d08af","name":"Keb'up House","area":"Schöneberg","venue_type":"restaurant","category":"Kebabimbiss","lat":52.498697,"lng":13.3537328,"star_rating":4.6,"total_reviews":668,"removed_min":51,"removed_max":100,"removal_rate":0.1497005988023952,"status":"hit","last_checked":"2026-04-28T17:26:22.654786+00:00","mss_si_n":2},{"id":"0x47a84e51b2bfebff:0xc7e38032a7cc4873","name":"Scheers Schnitzel","area":"Friedrichshain","venue_type":"restaurant","category":"Deutsches Restaurant","lat":52.5028152,"lng":13.4473839,"star_rating":4.7,"total_reviews":3502,"removed_min":51,"removed_max":100,"removal_rate":0.028555111364934323,"status":"hit","last_checked":"2026-04-28T17:32:01.040114+00:00","mss_si_n":2},{"id":"0x47a84fb8b6bdf253:0x60313fb52745d5ba","name":"Fukagawa Ramen XBerg","area":"Kreuzberg","venue_type":"restaurant","category":"Ramen-Restaurant","lat":52.5028944,"lng":13.412295,"star_rating":4.7,"total_reviews":642,"removed_min":51,"removed_max":100,"removal_rate":0.1557632398753894,"status":"hit","last_checked":"2026-04-28T17:36:22.571816+00:00","mss_si_n":3},{"id":"0x47a84f001075ea93:0xa762ae2ba7ae0e1c","name":"Fukagawa Ramen","area":"Prenzlauer Berg","venue_type":"restaurant","category":"Japanisches Restaurant","lat":52.5356158,"lng":13.4211459,"star_rating":4.7,"total_reviews":404,"removed_min":51,"removed_max":100,"removal_rate":0.24752475247524752,"status":"hit","last_checked":"2026-04-28T17:37:21.337363+00:00","mss_si_n":1},{"id":"0x47a851a461f25c35:0xfe35e35c7c0feb0b","name":"Dozo Ramen","area":"Charlottenburg","venue_type":"restaurant","category":"Ramen-Restaurant","lat":52.5046083,"lng":13.2984682,"star_rating":4.8,"total_reviews":481,"removed_min":51,"removed_max":100,"removal_rate":0.2079002079002079,"status":"hit","last_checked":"2026-04-28T17:41:13.996365+00:00","mss_si_n":2},{"id":"0x47a851c02110ae85:0x109f683e1daa35fc","name":"Papaya Restaurant","area":"Mitte","venue_type":"restaurant","category":"Asiatisches Restaurant","lat":52.5240581,"lng":13.3795965,"star_rating":4.2,"total_reviews":236,"removed_min":51,"removed_max":100,"removal_rate":0.423728813559322,"status":"hit","last_checked":"2026-04-28T17:56:23.555285+00:00","mss_si_n":1},{"id":"0x47a851cd82759697:0x62a21b4da808445a","name":"Baba Pirzola","area":"Schöneberg","venue_type":"restaurant","category":"Türkisches Restaurant","lat":52.5009726,"lng":13.3436561,"star_rating":4.7,"total_reviews":2766,"removed_min":51,"removed_max":100,"removal_rate":0.036153289949385395,"status":"hit","last_checked":"2026-04-28T18:12:53.983496+00:00","mss_si_n":2},{"id":"0x47a84f0032225487:0x5384acbf7ecda0ac","name":"Al akeed","area":"Neukölln","venue_type":"restaurant","category":"Syrisches Restaurant","lat":52.4854013,"lng":13.4313655,"star_rating":4.6,"total_reviews":139,"removed_min":51,"removed_max":100,"removal_rate":0.7194244604316546,"status":"hit","last_checked":"2026-04-28T18:17:51.750874+00:00","mss_si_n":3},{"id":"0x47a851467971ce6b:0xe0cc36adcce26222","name":"SARAY","area":"Charlottenburg","venue_type":"restaurant","category":"Persisches Restaurant","lat":52.5205976,"lng":13.2997969,"star_rating":4.8,"total_reviews":703,"removed_min":51,"removed_max":100,"removal_rate":0.1422475106685633,"status":"hit","last_checked":"2026-04-28T18:20:27.691703+00:00","mss_si_n":2},{"id":"0x47a85177e5794ee1:0x690c910badc12b1d","name":"Noosh Restaurant Berlin","area":"Charlottenburg","venue_type":"restaurant","category":"Persisches Restaurant","lat":52.5057558,"lng":13.3204395,"star_rating":4.4,"total_reviews":640,"removed_min":51,"removed_max":100,"removal_rate":0.15625,"status":"hit","last_checked":"2026-04-28T18:20:55.621603+00:00","mss_si_n":2},{"id":"0x47a8506a29e9a7c7:0x13328c714ac2e676","name":"Afghan Zamin Supermarkt","area":"Schöneberg","venue_type":"other","category":"Supermarkt","lat":52.4820586,"lng":13.3491103,"star_rating":4.8,"total_reviews":266,"removed_min":51,"removed_max":100,"removal_rate":0.37593984962406013,"status":"hit","last_checked":"2026-04-28T18:25:45.092763+00:00","mss_si_n":3},{"id":"0x47a857ff391d6a4f:0xd80993d3d0ed0502","name":"Teloneio Greek Taverna","area":"Spandau","venue_type":"restaurant","category":"Griechisches Restaurant","lat":52.5399239,"lng":13.2074431,"star_rating":4.8,"total_reviews":1068,"removed_min":51,"removed_max":100,"removal_rate":0.09363295880149813,"status":"hit","last_checked":"2026-04-28T18:27:28.955935+00:00","mss_si_n":3},{"id":"0x47a84f530279433b:0x2d8ebfae213ceccc","name":"Fischer & Lustig","area":"Mitte","venue_type":"restaurant","category":"Deutsches Restaurant","lat":52.5173938,"lng":13.4059432,"star_rating":4.7,"total_reviews":1185,"removed_min":51,"removed_max":100,"removal_rate":0.08438818565400844,"status":"hit","last_checked":"2026-04-28T18:49:20.606381+00:00","mss_si_n":2},{"id":"0x47a851ba9f665851:0x2dba3ca04ac0b7e","name":"Istanbul Grill","area":"Schöneberg","venue_type":"restaurant","category":"Kebabimbiss","lat":52.4975623,"lng":13.3616444,"star_rating":4.7,"total_reviews":268,"removed_min":51,"removed_max":100,"removal_rate":0.373134328358209,"status":"hit","last_checked":"2026-04-28T18:51:50.057268+00:00","mss_si_n":2},{"id":"0x47a851fb64bf43cf:0xc05af3f1ef5aaf3","name":"NAUTA Berlin","area":"Mitte","venue_type":"restaurant","category":"Peruanisches Restaurant","lat":52.5342092,"lng":13.4050261,"star_rating":4.6,"total_reviews":423,"removed_min":51,"removed_max":100,"removal_rate":0.2364066193853428,"status":"hit","last_checked":"2026-04-28T18:54:58.777037+00:00","mss_si_n":1},{"id":"0x47a84f3ab538dbc3:0x17bfcda1ca82c15f","name":"The Pho Bar","area":"Prenzlauer Berg","venue_type":"restaurant","category":"Vietnamesisches Restaurant","lat":52.5371706,"lng":13.4214607,"star_rating":4.7,"total_reviews":497,"removed_min":51,"removed_max":100,"removal_rate":0.2012072434607646,"status":"hit","last_checked":"2026-04-28T19:09:19.554496+00:00","mss_si_n":2},{"id":"0x47a84fcef41b017b:0xb85765d03a5932b5","name":"Preeda","area":"Prenzlauer Berg","venue_type":"restaurant","category":"Thailändisches Restaurant","lat":52.5314613,"lng":13.433536,"star_rating":4.8,"total_reviews":807,"removed_min":51,"removed_max":100,"removal_rate":0.12391573729863693,"status":"hit","last_checked":"2026-04-28T19:13:19.291620+00:00","mss_si_n":2},{"id":"0x47a84e4a8a4704f1:0x681a2e0eefe0153","name":"Yeni Adana Grillhaus","area":"Kreuzberg","venue_type":"restaurant","category":"Türkisches Restaurant","lat":52.4994635,"lng":13.4285123,"star_rating":4.7,"total_reviews":541,"removed_min":51,"removed_max":100,"removal_rate":0.18484288354898337,"status":"hit","last_checked":"2026-04-28T19:19:30.643468+00:00","mss_si_n":2},{"id":"0x47a84e5f7d6cb4d5:0xa057133d370b5b4e","name":"Bariton Restaurant & Cocktailbar","area":"Friedrichshain","venue_type":"restaurant","category":"Mexikanisches Restaurant","lat":52.511359,"lng":13.464021,"star_rating":4.5,"total_reviews":726,"removed_min":51,"removed_max":100,"removal_rate":0.13774104683195593,"status":"hit","last_checked":"2026-04-28T19:28:19.062189+00:00","mss_si_n":2},{"id":"0x47a851a1ec492b65:0x7278957b3be019cd","name":"LAP COFFEE","area":"Mitte","venue_type":"cafe","category":"Café","lat":52.5276603,"lng":13.4035268,"star_rating":4.7,"total_reviews":783,"removed_min":51,"removed_max":100,"removal_rate":0.1277139208173691,"status":"hit","last_checked":"2026-04-28T19:29:27.302045+00:00","mss_si_n":2},{"id":"0x47a84f5a28ecf35f:0x2835bc29eaf923b4","name":"Konditorei Al-Iman 3","area":"Neukölln","venue_type":"other","category":"Tortengeschäft","lat":52.4741031,"lng":13.4401855,"star_rating":4.4,"total_reviews":207,"removed_min":51,"removed_max":100,"removal_rate":0.4830917874396135,"status":"hit","last_checked":"2026-04-30T00:53:23.621177+00:00","mss_si_n":4},{"id":"0x47a8505998be3289:0xb20cb7db2ccfa08d","name":"Tribeca Ice Cream Prenzlauer Berg","area":"Prenzlauer Berg","venue_type":"restaurant","category":"Eiscafé","lat":52.5375391,"lng":13.4210677,"star_rating":4.8,"total_reviews":590,"removed_min":51,"removed_max":100,"removal_rate":0.1694915254237288,"status":"hit","last_checked":"2026-04-30T00:54:59.153044+00:00","mss_si_n":2},{"id":"0x47a84e18ae60ed41:0x31d1a9fc24e00d69","name":"House of Weekend","area":"Mitte","venue_type":"other","category":"Nachtclub","lat":52.5229352,"lng":13.4163463,"star_rating":4.3,"total_reviews":982,"removed_min":51,"removed_max":100,"removal_rate":0.10183299389002037,"status":"hit","last_checked":"2026-04-29T19:53:06.916369+00:00","mss_si_n":2},{"id":"0x47a84f363a99dc1d:0x4463b451a7f861d5","name":"Coffee Circle Rosa-Luxemburg","area":"Mitte","venue_type":"cafe","category":"Café","lat":52.5253399,"lng":13.4103461,"star_rating":4.6,"total_reviews":527,"removed_min":51,"removed_max":100,"removal_rate":0.18975332068311196,"status":"hit","last_checked":"2026-04-28T19:58:37.117637+00:00","mss_si_n":2},{"id":"0x47a85028c417b90f:0x818125f385d67da8","name":"Yorck's Kebap Allin","area":"Kreuzberg","venue_type":"restaurant","category":"Kebabimbiss","lat":52.4927696,"lng":13.3865594,"star_rating":4.6,"total_reviews":1835,"removed_min":51,"removed_max":100,"removal_rate":0.05449591280653951,"status":"hit","last_checked":"2026-04-28T20:12:26.736942+00:00","mss_si_n":2},{"id":"0x47a84f00359874d7:0xe3936374620a653f","name":"Chen's Beef Noodle House","area":"Neukölln","venue_type":"restaurant","category":"Chinese restaurant","lat":52.4815994,"lng":13.4339746,"star_rating":4.5,"total_reviews":515,"removed_min":51,"removed_max":100,"removal_rate":0.1941747572815534,"status":"hit","last_checked":"2026-04-28T20:17:54.756144+00:00","mss_si_n":3},{"id":"0x47a8502844013a4d:0x90251c180dc40739","name":"Madang Restaurant","area":"Kreuzberg","venue_type":"restaurant","category":"Korean restaurant","lat":52.492078,"lng":13.390092,"star_rating":4.5,"total_reviews":650,"removed_min":51,"removed_max":100,"removal_rate":0.15384615384615385,"status":"hit","last_checked":"2026-04-28T20:23:05.739347+00:00","mss_si_n":2},{"id":"0x47a84fa5479faae7:0x291481514801d57c","name":"Al Safa","area":"Neukölln","venue_type":"restaurant","category":"Middle Eastern restaurant","lat":52.4839064,"lng":13.4363684,"star_rating":4.6,"total_reviews":712,"removed_min":51,"removed_max":100,"removal_rate":0.1404494382022472,"status":"hit","last_checked":"2026-04-28T20:26:23.651190+00:00","mss_si_n":2},{"id":"0x47a84ef7aac4fe79:0xb857024b40c768f7","name":"SORA - Vietnamese Vegetarian/Vegan Cuisine","area":"Friedrichshain","venue_type":"restaurant","category":"Vietnamese restaurant","lat":52.506215,"lng":13.4654527,"star_rating":4.8,"total_reviews":856,"removed_min":51,"removed_max":100,"removal_rate":0.11682242990654206,"status":"hit","last_checked":"2026-04-28T20:37:39.701631+00:00","mss_si_n":2},{"id":"0x47a8530848cf028f:0x40b3ebf51aeeeca7","name":"Smack Burger","area":"Gesundbrunnen","venue_type":"restaurant","category":"Hamburger restaurant","lat":52.5502926,"lng":13.3847369,"star_rating":4.6,"total_reviews":1904,"removed_min":51,"removed_max":100,"removal_rate":0.052521008403361345,"status":"hit","last_checked":"2026-04-28T20:47:49.295812+00:00","mss_si_n":4},{"id":"0x47a8536cc2e4b1db:0x46e22835fae90157","name":"Café Frieda","area":"Prenzlauer Berg","venue_type":"restaurant","category":"Restaurant","lat":52.543548,"lng":13.4171045,"star_rating":4.3,"total_reviews":699,"removed_min":51,"removed_max":100,"removal_rate":0.1430615164520744,"status":"hit","last_checked":"2026-04-28T21:41:53.046666+00:00","mss_si_n":2},{"id":"0x47a852056faf4b55:0x86f9a4050ecb9ea6","name":"Elf Café","area":"Prenzlauer Berg","venue_type":"cafe","category":"Café","lat":52.5525851,"lng":13.409769,"star_rating":4.7,"total_reviews":375,"removed_min":51,"removed_max":100,"removal_rate":0.26666666666666666,"status":"hit","last_checked":"2026-04-28T22:13:39.296989+00:00","mss_si_n":2},{"id":"0x47a85bb7a587b14b:0xf8257c540e70b9ea","name":"Meat the Greek - Gyros Grill","area":"Steglitz","venue_type":"restaurant","category":"Griechisches Restaurant","lat":52.4635011,"lng":13.3321633,"star_rating":4.8,"total_reviews":547,"removed_min":51,"removed_max":100,"removal_rate":0.18281535648994515,"status":"hit","last_checked":"2026-04-28T22:27:47.407676+00:00","mss_si_n":2},{"id":"0x47a84eb5d9bd4083:0x8a8bff37161f35a7","name":"Steakhouse Giovanni","area":"Friedrichsfelde","venue_type":"restaurant","category":"Steakhaus","lat":52.5103272,"lng":13.5182141,"star_rating":4.8,"total_reviews":848,"removed_min":51,"removed_max":100,"removal_rate":0.1179245283018868,"status":"hit","last_checked":"2026-04-28T22:31:05.469013+00:00","mss_si_n":2},{"id":"0x47a84e4de283f239:0xec2bd7306be8631e","name":"Pizza Espresso","area":"Kreuzberg","venue_type":"restaurant","category":"Italienisches Restaurant","lat":52.5007442,"lng":13.4420721,"star_rating":4.7,"total_reviews":348,"removed_min":51,"removed_max":100,"removal_rate":0.28735632183908044,"status":"hit","last_checked":"2026-04-28T22:42:00.857013+00:00","mss_si_n":2},{"id":"0x47a84fc88ffc27a9:0xd87bdcd5167763de","name":"Burger City Schlesische Straße","area":"Kreuzberg","venue_type":"restaurant","category":"Burgerrestaurant","lat":52.4987489,"lng":13.4459417,"star_rating":4.6,"total_reviews":236,"removed_min":51,"removed_max":100,"removal_rate":0.423728813559322,"status":"hit","last_checked":"2026-04-28T22:48:30.497512+00:00","mss_si_n":2},{"id":"0x47a84e4e6d637ee7:0x65e2dd23d10046ab","name":"Tante Emma","area":"Kreuzberg","venue_type":"bar","category":"Bar","lat":52.5014716,"lng":13.4417458,"star_rating":4.6,"total_reviews":891,"removed_min":51,"removed_max":100,"removal_rate":0.1122334455667789,"status":"hit","last_checked":"2026-04-28T23:53:25.241641+00:00","mss_si_n":2},{"id":"0x47a84e5e901272fd:0xaa7eddad73052e89","name":"Plusminusnull (+-0) Restaurant Bar Lounge","area":"Friedrichshain","venue_type":"restaurant","category":"Restaurant","lat":52.5118106,"lng":13.4575021,"star_rating":4.5,"total_reviews":1767,"removed_min":51,"removed_max":100,"removal_rate":0.056593095642331635,"status":"hit","last_checked":"2026-04-29T00:08:13.740159+00:00","mss_si_n":2},{"id":"0x47a8522b2ab2f8e9:0x8454e51245015b55","name":"Parma di Vinibenedetti - Bio Restaurant Pizzeria in Berlin Kreuzberg","area":"Kreuzberg","venue_type":"restaurant","category":"Pizzeria","lat":52.4995873,"lng":13.4399706,"star_rating":4.8,"total_reviews":496,"removed_min":51,"removed_max":100,"removal_rate":0.20161290322580644,"status":"hit","last_checked":"2026-04-29T00:21:03.145142+00:00","mss_si_n":2},{"id":"0x47a84fd82f80e371:0xe864cd5f54f0bc2f","name":"Hotel-Restaurant Matzbach","area":"Kreuzberg","venue_type":"restaurant","category":null,"lat":52.4892582,"lng":13.3953724,"star_rating":4.7,"total_reviews":774,"removed_min":51,"removed_max":100,"removal_rate":0.12919896640826872,"status":"hit","last_checked":"2026-04-29T01:36:37.850833+00:00","mss_si_n":2},{"id":"0x47a851ecae28d715:0x7187451a824f965f","name":"Saiko Sushi Kreuzberg","area":"Kreuzberg","venue_type":"restaurant","category":"Sushi-Restaurant","lat":52.4929785,"lng":13.3822296,"star_rating":4.6,"total_reviews":135,"removed_min":51,"removed_max":100,"removal_rate":0.7407407407407407,"status":"hit","last_checked":"2026-04-29T01:43:03.896493+00:00","mss_si_n":2},{"id":"0x47a84fd78d670ad3:0x2094d1d0b5bf1920","name":"Tibet Haus","area":"Kreuzberg","venue_type":"restaurant","category":"Nepalesisches Restaurant","lat":52.4906689,"lng":13.3939081,"star_rating":4.6,"total_reviews":1138,"removed_min":51,"removed_max":100,"removal_rate":0.08787346221441125,"status":"hit","last_checked":"2026-04-29T01:49:52.135285+00:00","mss_si_n":2},{"id":"0x47a8502fa9de3067:0x8c8950c77ea44260","name":"Kindercafé Kreuzzwerg","area":"Kreuzberg","venue_type":"cafe","category":"Café","lat":52.4937334,"lng":13.3819271,"star_rating":4.7,"total_reviews":417,"removed_min":51,"removed_max":100,"removal_rate":0.23980815347721823,"status":"hit","last_checked":"2026-04-30T02:40:46.660709+00:00","mss_si_n":2},{"id":"0x47a85154557170d3:0xcc1721df4628d5a3","name":"Za'atar Falafel","area":"Schöneberg","venue_type":"restaurant","category":"Orientalisches Restaurant","lat":52.4843746,"lng":13.3616317,"star_rating":4.8,"total_reviews":933,"removed_min":51,"removed_max":100,"removal_rate":0.10718113612004287,"status":"hit","last_checked":"2026-04-29T02:34:28.228240+00:00","mss_si_n":2},